{"version": 0.6, "generator": "Overpass API 0.7.62.1 084b4234", "osm3s": {"timestamp_osm_base": "2024-09-11T11:03:45Z", "copyright": "The data included in this document is from www.openstreetmap.org. The data is made available under ODbL."}, "elements": [{"type": "node", "id": 1789975258, "lat": -37.5660863, "lon": 149.1525105, "tags": {"name": "Cann River Bakery", "shop": "bakery", "source": "voice"}}, {"type": "node", "id": 2307268461, "lat": -37.5667854, "lon": 149.1506316}, {"type": "node", "id": 2307268475, "lat": -37.5669206, "lon": 149.1503267}, {"type": "node", "id": 2307268495, "lat": -37.5666664, "lon": 149.1503347}, {"type": "node", "id": 2307268501, "lat": -37.5667111, "lon": 149.1502506}, {"type": "node", "id": 2763711752, "lat": -37.758822, "lon": 148.9672128, "tags": {"name": "Bemm River Bait & Tackle", "shop": "convenience"}}, {"type": "node", "id": 3957735420, "lat": -37.56665, "lon": 149.1505865}, {"type": "node", "id": 3957742527, "lat": -37.5664519, "lon": 149.1513604}, {"type": "node", "id": 3957742531, "lat": -37.5663329, "lon": 149.1512531}, {"type": "node", "id": 3957742533, "lat": -37.5662712, "lon": 149.1512933}, {"type": "node", "id": 3957742534, "lat": -37.5663393, "lon": 149.1516045}, {"type": "node", "id": 3957742535, "lat": -37.5662393, "lon": 149.1514945}, {"type": "node", "id": 11433049820, "lat": -37.5668212, "lon": 149.1504851}, {"type": "node", "id": 11433049821, "lat": -37.5668761, "lon": 149.1505226}, {"type": "way", "id": 392556814, "nodes": [2307268495, 3957735420, 2307268461, 11433049820, 11433049821, 2307268475, 2307268501, 2307268495], "tags": {"building": "retail", "name": "United", "shop": "convenience", "website": "https://www.unitedpetroleum.com.au/"}}, {"type": "way", "id": 392556904, "nodes": [3957742535, 3957742533, 3957742531, 3957742527, 3957742534, 3957742535], "tags": {"building": "yes", "name": "Cann River Friendly Grocer", "shop": "supermarket"}}]}