{"version": 0.6, "generator": "Overpass API 0.7.62.1 084b4234", "osm3s": {"timestamp_osm_base": "2024-09-11T11:01:44Z", "copyright": "The data included in this document is from www.openstreetmap.org. The data is made available under ODbL."}, "elements": [{"type": "node", "id": 1611269169, "lat": -36.3278135, "lon": 147.0290467, "tags": {"name": "Kergunyah General Store", "shop": "convenience"}}, {"type": "node", "id": 3144991966, "lat": -36.3132178, "lon": 146.839367, "tags": {"name": "Beechworth Bakery Yackandandah", "shop": "bakery"}}, {"type": "node", "id": 3169561740, "lat": -36.3127237, "lon": 146.8397138, "tags": {"fixme": "location approx", "name": "Foodworks", "shop": "supermarket"}}, {"type": "node", "id": 4018744433, "lat": -36.4645659, "lon": 147.2489774, "tags": {"addr:housenumber": "3764", "addr:postcode": "3701", "addr:state": "VIC", "addr:street": "Omeo Highway", "addr:suburb": "Eskdale", "brand": "IGA", "brand:wikidata": "Q5970945", "name": "Eskdale IGA X-press + Liquor", "shop": "supermarket"}}, {"type": "node", "id": 5441908904, "lat": -36.4814613, "lon": 147.0306943}, {"type": "node", "id": 5441908905, "lat": -36.4815402, "lon": 147.0308783}, {"type": "node", "id": 5441908906, "lat": -36.4816911, "lon": 147.0307783}, {"type": "node", "id": 5441908907, "lat": -36.48165, "lon": 147.0306824}, {"type": "node", "id": 5441908908, "lat": -36.4815849, "lon": 147.0307256}, {"type": "node", "id": 5441908909, "lat": -36.4815472, "lon": 147.0306375}, {"type": "way", "id": 564917904, "nodes": [5441908904, 5441908905, 5441908906, 5441908907, 5441908908, 5441908909, 5441908904], "tags": {"building": "yes", "shop": "convenience"}}]}