{"version": 0.6, "generator": "Overpass API 0.7.62.1 084b4234", "osm3s": {"timestamp_osm_base": "2024-09-11T11:04:44Z", "copyright": "The data included in this document is from www.openstreetmap.org. The data is made available under ODbL."}, "elements": [{"type": "node", "id": 34496385, "lat": -37.7695448, "lon": 144.9604238}, {"type": "node", "id": 34496386, "lat": -37.7700538, "lon": 144.9603268}, {"type": "node", "id": 34496387, "lat": -37.7699672, "lon": 144.9595999}, {"type": "node", "id": 176725628, "lat": -37.8146579, "lon": 144.9670766}, {"type": "node", "id": 176725646, "lat": -37.8146007, "lon": 144.9672724}, {"type": "node", "id": 176725656, "lat": -37.8150986, "lon": 144.9675004}, {"type": "node", "id": 176725670, "lat": -37.8151567, "lon": 144.9673028}, {"type": "node", "id": 176729780, "lat": -37.815497, "lon": 144.967598, "tags": {"addr:city": "Melbourne", "addr:housenumber": "191", "addr:postcode": "3000", "addr:street": "Collins Street", "amenity": "theatre", "name": "Regent Theatre", "operator": "Marriner Group", "website": "https://www.marrinergroup.com.au/theatre-regent.php", "wikidata": "Q7308110"}}, {"type": "node", "id": 188795650, "lat": -37.8675559, "lon": 144.976061, "tags": {"amenity": "theatre", "name": "Palais Theatre", "website": "http://www.palaistheatre.net.au/"}}, {"type": "node", "id": 188795670, "lat": -37.8668729, "lon": 144.9809316, "tags": {"amenity": "theatre", "name": "National Theatre", "wikidata": "Q6978920"}}, {"type": "node", "id": 222420863, "lat": -37.7889872, "lon": 144.9760904, "tags": {"addr:housenumber": "799", "addr:street": "Nicholson Street", "branch": "Carlton North", "brand": "Foodworks", "brand:wikidata": "Q5465579", "brand:wikipedia": "en:FoodWorks", "fixme": "Is this still open?", "name": "Foodworks", "opening_hours": "24/7", "phone": "+61 3 9380 1648", "shop": "supermarket", "wheelchair": "no"}}, {"type": "node", "id": 241033559, "lat": -37.7874325, "lon": 144.9694563, "tags": {"addr:housenumber": "187", "addr:street": "Fenwick Street", "name": "Filou's Artisan Patisserie", "opening_hours": "Mo-Sa 07:00-17:00; Su 07:00-15:00", "phone": "+61 3 9347 4029", "shop": "bakery", "website": "https://filous.com.au/"}}, {"type": "node", "id": 241367792, "lat": -37.7804125, "lon": 144.9778648, "tags": {"addr:housenumber": "809", "addr:street": "Nicholson Street", "name": "Natural Tucker Bakery", "shop": "bakery", "website": "https://www.naturaltuckerbakery.com.au/"}}, {"type": "node", "id": 243097357, "lat": -37.8203971, "lon": 144.9681167}, {"type": "node", "id": 243097360, "lat": -37.8203095, "lon": 144.9677026}, {"type": "node", "id": 243097363, "lat": -37.820055, "lon": 144.9676383}, {"type": "node", "id": 243097364, "lat": -37.8199571, "lon": 144.9677016}, {"type": "node", "id": 243097365, "lat": -37.8198502, "lon": 144.967946}, {"type": "node", "id": 243097368, "lat": -37.8199453, "lon": 144.9682548}, {"type": "node", "id": 243097370, "lat": -37.8201094, "lon": 144.968343}, {"type": "node", "id": 243097371, "lat": -37.8202828, "lon": 144.96829}, {"type": "node", "id": 247010552, "lat": -37.8089838, "lon": 144.9676407, "tags": {"amenity": "nightclub", "created_by": "JOSM", "name": "Bennetts Lane Jazz Club", "wikidata": "Q4889777"}}, {"type": "node", "id": 247018074, "lat": -37.8106929, "lon": 144.9697519}, {"type": "node", "id": 247018078, "lat": -37.8110841, "lon": 144.9699271}, {"type": "node", "id": 247018081, "lat": -37.8112049, "lon": 144.9695114}, {"type": "node", "id": 247019245, "lat": -37.8101992, "lon": 144.9698808}, {"type": "node", "id": 247019248, "lat": -37.8100569, "lon": 144.9703973}, {"type": "node", "id": 247019260, "lat": -37.8104559, "lon": 144.9699961}, {"type": "node", "id": 247627075, "lat": -37.7884332, "lon": 144.9905823, "tags": {"addr:housenumber": "330", "addr:street": "Queens Parade", "brand": "Bakers Delight", "brand:wikidata": "Q4849261", "brand:wikipedia": "en:Bakers Delight", "name": "Bakers Delight", "phone": "+61 3 9486 7500", "shop": "bakery", "website": "https://www.bakersdelight.com.au/", "wheelchair": "yes"}}, {"type": "node", "id": 250935093, "lat": -37.7444048, "lon": 144.9088547}, {"type": "node", "id": 250935094, "lat": -37.7441021, "lon": 144.9089109}, {"type": "node", "id": 250935095, "lat": -37.743906, "lon": 144.9084008}, {"type": "node", "id": 250935096, "lat": -37.7441866, "lon": 144.9082314}, {"type": "node", "id": 250935097, "lat": -37.7443922, "lon": 144.9088015}, {"type": "node", "id": 251758065, "lat": -37.67064, "lon": 144.8539668, "tags": {"entrance": "main"}}, {"type": "node", "id": 266744743, "lat": -37.7477525, "lon": 144.9092515, "tags": {"created_by": "Potlatch 0.10e", "shop": "convenience", "source": "yahoo"}}, {"type": "node", "id": 268181318, "lat": -37.7826422, "lon": 144.8311326, "tags": {"amenity": "cinema", "brand": "Village", "brand:wikidata": "Q7930631", "brand:wikipedia": "en:Village Cinemas", "name": "Village Cinemas", "website": "https://www.villagecinemas.com.au/", "wikidata": "Q47001174"}}, {"type": "node", "id": 280411386, "lat": -37.7682075, "lon": 144.9216473}, {"type": "node", "id": 280411388, "lat": -37.7674641, "lon": 144.9217197}, {"type": "node", "id": 280411389, "lat": -37.7674189, "lon": 144.9213906}, {"type": "node", "id": 280411390, "lat": -37.767322, "lon": 144.9214076}, {"type": "node", "id": 280411484, "lat": -37.7681444, "lon": 144.9210602}, {"type": "node", "id": 280411487, "lat": -37.7675099, "lon": 144.921767}, {"type": "node", "id": 280411656, "lat": -37.7672995, "lon": 144.9212071}, {"type": "node", "id": 281391506, "lat": -37.7928368, "lon": 145.0651262}, {"type": "node", "id": 281391517, "lat": -37.7930954, "lon": 145.0651902}, {"type": "node", "id": 290311973, "lat": -37.8751075, "lon": 144.6652243, "tags": {"name": "Quix", "shop": "convenience"}}, {"type": "node", "id": 290313333, "lat": -37.8747789, "lon": 144.6794291, "tags": {"addr:housenumber": "250", "addr:street": "Heaths Road", "brand": "Coles", "brand:wikidata": "Q1108172", "brand:wikipedia": "en:Coles Supermarkets", "name": "Coles", "operator": "Coles Group", "operator:wikidata": "Q1339055", "shop": "supermarket", "website": "https://www.coles.com.au/"}}, {"type": "node", "id": 291210034, "lat": -37.8100694, "lon": 144.9634038, "tags": {"addr:postcode": "3000", "amenity": "cinema", "brand": "Hoyts", "brand:wikidata": "Q5922976", "brand:wikipedia": "en:Hoyts", "floor": "3", "name": "Hoyts Melbourne Central", "website": "https://www.hoyts.com.au", "wheelchair": "yes"}}, {"type": "node", "id": 291552617, "lat": -37.7435325, "lon": 144.9635923}, {"type": "node", "id": 291552619, "lat": -37.7436755, "lon": 144.9641131}, {"type": "node", "id": 291552622, "lat": -37.7442052, "lon": 144.9640314}, {"type": "node", "id": 291552624, "lat": -37.7441532, "lon": 144.9634943}, {"type": "node", "id": 291724936, "lat": -37.7387712, "lon": 144.9668379}, {"type": "node", "id": 291724941, "lat": -37.7388642, "lon": 144.9667109}, {"type": "node", "id": 291724942, "lat": -37.7388528, "lon": 144.9666185}, {"type": "node", "id": 293387706, "lat": -37.7798165, "lon": 144.9963138}, {"type": "node", "id": 293387707, "lat": -37.7798669, "lon": 144.9967968}, {"type": "node", "id": 293387708, "lat": -37.780046, "lon": 144.9967658}, {"type": "node", "id": 293387709, "lat": -37.7799963, "lon": 144.9962841}, {"type": "node", "id": 294964802, "lat": -37.8429484, "lon": 144.9959858, "tags": {"amenity": "cinema", "brand": "Village", "brand:wikidata": "Q7930631", "name": "Village Cinemas", "website": "https://www.villagecinemas.com.au/", "wheelchair": "yes", "wikidata": "Q47001168"}}, {"type": "node", "id": 297644035, "lat": -37.7573694, "lon": 144.9346986, "tags": {"shop": "convenience"}}, {"type": "node", "id": 300467603, "lat": -37.7382993, "lon": 144.8923575}, {"type": "node", "id": 300467604, "lat": -37.7383876, "lon": 144.8933016}, {"type": "node", "id": 300467612, "lat": -37.73815, "lon": 144.8925291}, {"type": "node", "id": 300467613, "lat": -37.7381364, "lon": 144.8923746}, {"type": "node", "id": 300467877, "lat": -37.7379126, "lon": 144.8925657}, {"type": "node", "id": 300467878, "lat": -37.7380006, "lon": 144.8933613}, {"type": "node", "id": 300776709, "lat": -37.7383184, "lon": 144.8925496}, {"type": "node", "id": 300776710, "lat": -37.7383798, "lon": 144.8932656}, {"type": "node", "id": 302129361, "lat": -37.7978092, "lon": 144.9680124, "tags": {"addr:housenumber": "380", "addr:postcode": "3053", "addr:state": "VIC", "addr:street": "Lygon Street", "addr:suburb": "Carlton", "air_conditioning": "yes", "amenity": "cinema", "check_date": "2022-10-02", "name": "Cinema Nova", "screen": "16", "start_date": "1992-08-29", "website": "https://www.cinemanova.com.au/", "wheelchair": "yes", "wikidata": "Q47000853"}}, {"type": "node", "id": 302129542, "lat": -37.7981407, "lon": 144.9683576, "tags": {"brand": "Woolworths", "brand:wikidata": "Q3249145", "name": "Woolworths", "opening_hours": "Mo-Su 07:00-23:00", "operator": "Woolworths Group", "operator:wikidata": "Q607272", "shop": "supermarket", "wheelchair": "yes"}}, {"type": "node", "id": 302270717, "lat": -37.7397354, "lon": 145.0015892}, {"type": "node", "id": 302559944, "lat": -37.7977034, "lon": 144.9687111, "tags": {"addr:housenumber": "349", "addr:street": "Drummond Street", "alt_name": "La Mama Courthouse", "amenity": "theatre", "name": "Courthouse Theatre", "phone": "+61 3 9347 6948", "website": "https://lamama.com.au/venues/la-mama-courthouse/"}}, {"type": "node", "id": 302755274, "lat": -37.859552, "lon": 144.978283, "tags": {"addr:housenumber": "135", "addr:street": "Fitzroy Street", "amenity": "cinema", "name": "Palace George", "phone": "+61 3 9534 6952", "source": "Collected via KeypadMapper", "website": "https://www.palacecinemas.com.au/venue.asp"}}, {"type": "node", "id": 304169365, "lat": -37.8217162, "lon": 144.9683971, "tags": {"amenity": "theatre", "created_by": "Potlatch 0.10e", "name": "Playhouse Theatre", "wheelchair": "limited"}}, {"type": "node", "id": 307346844, "lat": -37.8042473, "lon": 144.9591951}, {"type": "node", "id": 308134889, "lat": -37.7486697, "lon": 144.8618143}, {"type": "node", "id": 308134890, "lat": -37.7486998, "lon": 144.862046}, {"type": "node", "id": 308134891, "lat": -37.7486151, "lon": 144.8620637}, {"type": "node", "id": 308134892, "lat": -37.748585, "lon": 144.8618319}, {"type": "node", "id": 308138806, "lat": -37.7446049, "lon": 144.8529135, "tags": {"created_by": "Potlatch 0.10e", "shop": "convenience", "source": "yahoo"}}, {"type": "node", "id": 310742110, "lat": -37.7506987, "lon": 145.0033782}, {"type": "node", "id": 310742111, "lat": -37.7507632, "lon": 145.0039261}, {"type": "node", "id": 310943481, "lat": -37.7394318, "lon": 145.0279356}, {"type": "node", "id": 310943485, "lat": -37.7379693, "lon": 145.0282002}, {"type": "node", "id": 310945088, "lat": -37.8025203, "lon": 145.0035085, "tags": {"name": "Convent Bakery", "opening_hours": "Mo-Su 07:00-17:00", "shop": "bakery", "website": "https://www.conventbakery.com/", "wheelchair": "yes"}}, {"type": "node", "id": 311690358, "lat": -37.7243368, "lon": 144.9749518}, {"type": "node", "id": 311690360, "lat": -37.7236715, "lon": 144.96939}, {"type": "node", "id": 311690361, "lat": -37.7233456, "lon": 144.9693127}, {"type": "node", "id": 311690362, "lat": -37.7232506, "lon": 144.969656}, {"type": "node", "id": 311690363, "lat": -37.7224834, "lon": 144.9695788}, {"type": "node", "id": 311690364, "lat": -37.7223816, "lon": 144.9694586}, {"type": "node", "id": 311690365, "lat": -37.7221488, "lon": 144.9697526}, {"type": "node", "id": 311690366, "lat": -37.7222169, "lon": 144.9698979}, {"type": "node", "id": 311690367, "lat": -37.7220531, "lon": 144.9719771}, {"type": "node", "id": 311690368, "lat": -37.7218656, "lon": 144.9725142}, {"type": "node", "id": 311690369, "lat": -37.7221915, "lon": 144.9727459}, {"type": "node", "id": 311690370, "lat": -37.7236851, "lon": 144.9718533}, {"type": "node", "id": 311690371, "lat": -37.7238005, "lon": 144.9719134}, {"type": "node", "id": 311690372, "lat": -37.7242078, "lon": 144.9750205}, {"type": "node", "id": 312966772, "lat": -37.8161125, "lon": 144.8909163}, {"type": "node", "id": 321146638, "lat": -37.7723156, "lon": 144.9490724}, {"type": "node", "id": 322718897, "lat": -37.7678773, "lon": 145.0422999}, {"type": "node", "id": 322718898, "lat": -37.7678434, "lon": 145.0420223}, {"type": "node", "id": 322718899, "lat": -37.767911, "lon": 145.0420091}, {"type": "node", "id": 324000034, "lat": -37.7387466, "lon": 144.966618}, {"type": "node", "id": 325276531, "lat": -37.6856825, "lon": 144.5657612, "tags": {"addr:housenumber": "533-555", "addr:street": "High Street", "brand": "Coles", "brand:wikidata": "Q1108172", "brand:wikipedia": "en:Coles Supermarkets", "name": "Coles", "shop": "supermarket", "website": "https://www.coles.com.au/"}}, {"type": "node", "id": 325276537, "lat": -37.6855804, "lon": 144.5669149, "tags": {"brand": "Woolworths", "brand:wikidata": "Q3249145", "brand:wikipedia": "en:Woolworths Supermarkets", "name": "Woolworths", "shop": "supermarket", "website": "https://www.woolworths.com.au/"}}, {"type": "node", "id": 328088847, "lat": -37.9153808, "lon": 144.9951119}, {"type": "node", "id": 328104101, "lat": -37.7984386, "lon": 144.9782418, "tags": {"addr:housenumber": "295-297", "addr:street": "Brunswick Street", "brand": "7-Eleven", "brand:wikidata": "Q259340", "brand:wikipedia": "en:7-Eleven", "check_date": "2024-08-11", "level": "0", "name": "7-Eleven", "opening_hours": "24/7", "phone": "+61 3 9415 8531", "shop": "convenience", "wheelchair": "yes"}}, {"type": "node", "id": 328419988, "lat": -37.7597746, "lon": 145.0007011, "tags": {"created_by": "Potlatch 0.10f", "name": "Psarakos Market", "opening_hours": "Mo-Fr 09:00-18:00; Sa 08:00-16:00; PH,Su off", "shop": "supermarket", "wheelchair": "yes"}}, {"type": "node", "id": 331165028, "lat": -37.7990994, "lon": 144.9676917, "tags": {"addr:housenumber": "205", "addr:postcode": "3053", "addr:street": "Faraday Street", "amenity": "theatre", "name": "La Mama Theatre", "website": "https://lamama.com.au/", "wikidata": "Q6463660"}}, {"type": "node", "id": 340177991, "lat": -37.8006537, "lon": 144.9637357, "tags": {"brand": "7-Eleven", "brand:wikidata": "Q259340", "name": "7-Eleven", "shop": "convenience", "wheelchair": "yes"}}, {"type": "node", "id": 361282551, "lat": -37.8016839, "lon": 144.9836896}, {"type": "node", "id": 361282553, "lat": -37.801618, "lon": 144.9829015}, {"type": "node", "id": 361282554, "lat": -37.8011589, "lon": 144.9827965}, {"type": "node", "id": 361282555, "lat": -37.8012561, "lon": 144.9837583}, {"type": "node", "id": 368393200, "lat": -37.8035056, "lon": 144.9706364, "tags": {"amenity": "cinema", "check_date": "2022-10-02", "name": "IMAX Melbourne", "operator": "Melbourne museum", "payment:mastercard": "yes", "payment:visa": "yes", "phone": "+61 3 9663 5454", "screen": "1", "website": "https://imaxmelbourne.com.au/", "wikidata": "Q47000854"}}, {"type": "node", "id": 370224122, "lat": -37.798856, "lon": 144.953525, "tags": {"addr:housenumber": "75", "addr:street": "Flemington Road", "name": "North Melbourne IGA X-press", "phone": "+61 3 9328 8800", "shop": "supermarket", "website": "https://www.iga.com.au/", "wheelchair": "yes"}}, {"type": "node", "id": 374890160, "lat": -37.8978443, "lon": 145.0051733, "tags": {"brand": "7-Eleven", "brand:wikidata": "Q259340", "brand:wikipedia": "en:7-Eleven", "check_date": "2022-12-14", "name": "7-Eleven", "shop": "convenience", "website": "https://www.7eleven.com.au/"}}, {"type": "node", "id": 380062756, "lat": -37.8340209, "lon": 144.9608536, "tags": {"brand": "7-Eleven", "brand:wikidata": "Q259340", "brand:wikipedia": "en:7-Eleven", "name": "7-Eleven", "shop": "convenience"}}, {"type": "node", "id": 385040567, "lat": -37.6987884, "lon": 144.7751651, "tags": {"addr:postcode": "3038", "amenity": "cinema", "brand": "Hoyts", "brand:wikidata": "Q5922976", "brand:wikipedia": "en:Hoyts", "contact:facebook": "hoytsaustralia", "name": "Hoyts", "opening_hours": "Mo-Tu,Th 10:00-24:00, We 10:00-25:00, Fr-Su 10:00-24:30", "phone": "+61 3 9027 1510", "website": "https://www.hoyts.com.au/", "wikidata": "Q47000769"}}, {"type": "node", "id": 387684236, "lat": -37.7721153, "lon": 144.9486445}, {"type": "node", "id": 387684238, "lat": -37.7727014, "lon": 144.9489953}, {"type": "node", "id": 387684239, "lat": -37.7726415, "lon": 144.9485348}, {"type": "node", "id": 396987047, "lat": -37.83062, "lon": 145.0554461, "tags": {"addr:housenumber": "200", "addr:postcode": "3123", "addr:state": "VIC", "addr:street": "Camberwell Road", "addr:suburb": "Hawthorn East", "air_conditioning": "yes", "amenity": "cinema", "brand": "Village", "brand:wikidata": "Q7930631", "brand:wikipedia": "en:Village Cinemas", "name": "Village Rivoli", "payment:cash": "yes", "payment:coins": "yes", "payment:contactless": "yes", "payment:credit_cards": "yes", "payment:debit_cards": "yes", "payment:mastercard": "yes", "payment:notes": "yes", "payment:visa": "yes", "website": "https://villagecinemas.com.au/cinemas/rivoli", "wikidata": "Q16864824", "wikipedia": "en:Rivoli Cinemas"}}, {"type": "node", "id": 413769366, "lat": -37.8241541, "lon": 144.9678029}, {"type": "node", "id": 413769367, "lat": -37.8242552, "lon": 144.9672877}, {"type": "node", "id": 413769368, "lat": -37.8237488, "lon": 144.9674506}, {"type": "node", "id": 413769369, "lat": -37.8238146, "lon": 144.9678102}, {"type": "node", "id": 413769370, "lat": -37.8238258, "lon": 144.967859}, {"type": "node", "id": 441991395, "lat": -37.8254909, "lon": 144.9947938, "tags": {"addr:housenumber": "150", "addr:street": "Swan Street", "brand": "Coles", "brand:wikidata": "Q1108172", "brand:wikipedia": "en:Coles Supermarkets", "name": "Coles", "opening_hours": "Mo-Su 06:00-00:00", "operator": "Coles Group", "operator:wikidata": "Q1339055", "phone": "+61 3 9420 3000", "shop": "supermarket", "website": "https://www.coles.com.au/"}}, {"type": "node", "id": 443539307, "lat": -37.8254866, "lon": 144.9977901, "tags": {"brand": "7-Eleven", "brand:wikidata": "Q259340", "brand:wikipedia": "en:7-Eleven", "name": "7-Eleven", "shop": "convenience", "website": "https://www.7eleven.com.au/"}}, {"type": "node", "id": 443539308, "lat": -37.8256115, "lon": 144.9966709, "tags": {"brand": "Bakers Delight", "brand:wikidata": "Q4849261", "brand:wikipedia": "en:Bakers Delight", "name": "Bakers Delight", "shop": "bakery", "website": "https://www.bakersdelight.com.au/"}}, {"type": "node", "id": 444322716, "lat": -37.6901058, "lon": 144.897594, "tags": {"name": "Milk Bar", "shop": "convenience"}}, {"type": "node", "id": 446516607, "lat": -37.8135412, "lon": 145.0115728, "tags": {"amenity": "cinema", "brand": "Hoyts", "brand:wikidata": "Q5922976", "brand:wikipedia": "en:Hoyts", "layer": "2", "name": "Hoyts Victoria Gardens", "website": "https://www.hoyts.com.au/cinemas/locations/victoria_gardens.aspx", "wikidata": "Q47001109"}}, {"type": "node", "id": 448078422, "lat": -37.8005946, "lon": 144.9841436, "tags": {"addr:city": "Collingwood", "addr:housenumber": "286", "addr:postcode": "3066", "addr:street": "Smith Street", "brand": "7-Eleven", "brand:wikidata": "Q259340", "brand:wikipedia": "en:7-Eleven", "name": "7-Eleven", "opening_hours": "24/7", "shop": "convenience", "wheelchair": "yes"}}, {"type": "node", "id": 448813336, "lat": -37.8887075, "lon": 145.0413285}, {"type": "node", "id": 448813337, "lat": -37.8886311, "lon": 145.0408274}, {"type": "node", "id": 448813338, "lat": -37.8891501, "lon": 145.0407252}, {"type": "node", "id": 448813339, "lat": -37.8892119, "lon": 145.0412292}, {"type": "node", "id": 449383332, "lat": -37.8845285, "lon": 145.0587077, "tags": {"brand": "Woolworths", "brand:wikidata": "Q3249145", "brand:wikipedia": "en:Woolworths Supermarkets", "name": "Woolworths", "operator": "Woolworths Group", "operator:wikidata": "Q607272", "shop": "supermarket", "website": "https://www.woolworths.com.au/"}}, {"type": "node", "id": 452347905, "lat": -37.8316067, "lon": 144.9298411}, {"type": "node", "id": 452347907, "lat": -37.8309953, "lon": 144.9296522}, {"type": "node", "id": 452347908, "lat": -37.8308994, "lon": 144.9301493}, {"type": "node", "id": 452347909, "lat": -37.8307709, "lon": 144.9301095}, {"type": "node", "id": 452347910, "lat": -37.8305968, "lon": 144.9310116}, {"type": "node", "id": 452347912, "lat": -37.8307232, "lon": 144.9310506}, {"type": "node", "id": 452347913, "lat": -37.8306085, "lon": 144.9316452}, {"type": "node", "id": 452347914, "lat": -37.8312223, "lon": 144.9318349}, {"type": "node", "id": 452809965, "lat": -37.8060756, "lon": 145.0291119}, {"type": "node", "id": 452809966, "lat": -37.8064471, "lon": 145.0290444}, {"type": "node", "id": 452809967, "lat": -37.806496, "lon": 145.0294518}, {"type": "node", "id": 452809968, "lat": -37.8061258, "lon": 145.0295189}, {"type": "node", "id": 461534089, "lat": -37.8952497, "lon": 144.7530363, "tags": {"addr:housenumber": "300", "addr:street": "Point Cook Road", "branch": "Sanctuary Lakes", "brand": "Coles", "brand:wikidata": "Q1108172", "brand:wikipedia": "en:Coles Supermarkets", "name": "Coles", "opening_hours": "Mo-Su 06:00-24:00", "operator": "Coles Group", "operator:wikidata": "Q1339055", "shop": "supermarket", "website": "https://www.coles.com.au/"}}, {"type": "node", "id": 469459628, "lat": -37.8628805, "lon": 145.0271098, "tags": {"brand": "Woolworths", "brand:wikidata": "Q3249145", "brand:wikipedia": "en:Woolworths Supermarkets", "name": "Woolworths", "operator": "Woolworths Group", "operator:wikidata": "Q607272", "shop": "supermarket", "website": "https://www.woolworths.com.au/"}}, {"type": "node", "id": 472236183, "lat": -37.8019136, "lon": 144.9665245, "tags": {"brand": "7-Eleven", "brand:wikidata": "Q259340", "brand:wikipedia": "en:7-Eleven", "name": "7-Eleven", "shop": "convenience"}}, {"type": "node", "id": 473363977, "lat": -37.7070041, "lon": 144.9387874, "tags": {"brand": "Woolworths", "brand:wikidata": "Q3249145", "brand:wikipedia": "en:Woolworths Supermarkets", "name": "Woolworths", "shop": "supermarket"}}, {"type": "node", "id": 485687995, "lat": -37.7810004, "lon": 144.9319747, "tags": {"name": "Ascot Market", "shop": "convenience", "wheelchair": "yes"}}, {"type": "node", "id": 492900388, "lat": -37.6508313, "lon": 145.0687423, "tags": {"brand": "Coles", "brand:wikidata": "Q1108172", "brand:wikipedia": "en:Coles Supermarkets", "name": "Coles", "shop": "supermarket", "website": "https://www.coles.com.au/"}}, {"type": "node", "id": 492905311, "lat": -37.6520545, "lon": 145.0741496, "tags": {"brand": "Woolworths", "brand:wikidata": "Q3249145", "brand:wikipedia": "en:Woolworths Supermarkets", "name": "Woolworths", "operator": "Woolworths Group", "operator:wikidata": "Q607272", "shop": "supermarket", "website": "https://www.woolworths.com.au/"}}, {"type": "node", "id": 492905319, "lat": -37.6528004, "lon": 145.0201794, "tags": {"amenity": "cinema", "name": "Reading Epping Cinema", "website": "https://www.readingcinemas.com.au/", "wikidata": "Q47000916"}}, {"type": "node", "id": 496943527, "lat": -37.8242677, "lon": 144.9577541, "tags": {"addr:city": "Southbank", "addr:housenumber": "8", "addr:postcode": "3006", "addr:street": "Whiteman Street", "addr:unit": "Shop 50", "amenity": "cinema", "brand": "Village", "brand:wikidata": "Q7930631", "name": "Village Cinemas Crown", "toilets:wheelchair": "yes", "website": "https://villagecinemas.com.au/cinemas/crown", "wheelchair": "yes"}}, {"type": "node", "id": 506153647, "lat": -37.8205606, "lon": 144.9436054, "tags": {"branch": "Victoria Harbour", "brand": "Woolworths", "brand:wikidata": "Q3249145", "brand:wikipedia": "en:Woolworths Supermarkets", "diet:halal": "yes", "diet:kosher": "yes", "name": "Woolworths", "opening_hours": "Mo-Fr 07:00-23:00; Sa,Su 08:00-23:00", "operator": "Woolworths Group", "operator:wikidata": "Q607272", "shop": "supermarket", "toilets:wheelchair": "no", "website": "https://www.woolworths.com.au/", "wheelchair": "yes"}}, {"type": "node", "id": 508030778, "lat": -37.7930599, "lon": 144.8607906, "tags": {"addr:housenumber": "67", "addr:street": "Ashley Street", "brand": "Aldi", "brand:wikidata": "Q125054", "brand:wikipedia": "en:Aldi", "check_date:opening_hours": "2023-05-05", "full_name": "ALDI West Footscray", "name": "ALDI", "opening_hours": "Mo-Su 08:30-20:00", "shop": "supermarket", "website": "https://store.aldi.com.au/vic/west-footscray/67-ashley-street", "wheelchair": "yes"}}, {"type": "node", "id": 508030779, "lat": -37.7936568, "lon": 144.8603614, "tags": {"addr:housenumber": "67", "addr:street": "Ashley Street", "brand": "Coles", "brand:wikidata": "Q1108172", "brand:wikipedia": "en:Coles Supermarkets", "name": "Coles", "operator": "Coles Group", "operator:wikidata": "Q1339055", "shop": "supermarket", "website": "https://www.coles.com.au/"}}, {"type": "node", "id": 517143718, "lat": -37.8341478, "lon": 144.9815358, "tags": {"addr:housenumber": "159", "addr:street": "Domain Road", "amenity": "post_office", "brand": "Australia Post", "name": "Burns' Grocery LPO", "operator": "Australia Post", "operator:wikidata": "Q1142936", "operator:wikipedia": "en:Australia Post", "phone": "+61 3 9866 2164", "shop": "convenience"}}, {"type": "node", "id": 518260719, "lat": -37.8392617, "lon": 144.9970194, "tags": {"amenity": "cinema", "brand": "Palace Cinemas", "brand:wikidata": "Q7126164", "brand:wikipedia": "en:Palace Cinemas (Australia)", "name": "Palace Cinemas", "wheelchair": "yes"}}, {"type": "node", "id": 519560015, "lat": -37.8286561, "lon": 144.9640556, "tags": {"name": "Quickstop", "shop": "convenience"}}, {"type": "node", "id": 526647472, "lat": -37.8839226, "lon": 144.9976074}, {"type": "node", "id": 529842831, "lat": -37.8389776, "lon": 144.9923839, "tags": {"addr:housenumber": "165", "addr:street": "Toorak Road", "addr:unit": "5", "brand": "7-Eleven", "brand:wikidata": "Q259340", "brand:wikipedia": "en:7-Eleven", "name": "7-Eleven", "opening_hours": "24/7", "phone": "+61 3 9820 9727", "shop": "convenience", "toilets:wheelchair": "no", "wheelchair": "yes"}}, {"type": "node", "id": 541334786, "lat": -37.8446368, "lon": 144.9993834, "tags": {"amenity": "theatre", "name": "Cromwell Street Theatre"}}, {"type": "node", "id": 563746547, "lat": -37.7983052, "lon": 144.9794393, "tags": {"addr:housenumber": "141", "addr:street": "Johnston Street", "amenity": "nightclub", "name": "The Night Cat", "phone": "+61 3 9417 0090", "website": "https://www.thenightcat.com.au/", "wheelchair": "yes"}}, {"type": "node", "id": 566528267, "lat": -37.682907, "lon": 145.0704091, "tags": {"addr:housenumber": "5", "addr:street": "Janefield Drive", "brand": "Coles", "brand:wikidata": "Q1108172", "brand:wikipedia": "en:Coles Supermarkets", "name": "Coles", "operator": "Coles Group", "operator:wikidata": "Q1339055", "shop": "supermarket", "website": "https://www.coles.com.au/"}}, {"type": "node", "id": 566872408, "lat": -37.8432511, "lon": 144.9466689, "tags": {"amenity": "theatre", "name": "Gasworks Theatre"}}, {"type": "node", "id": 570482501, "lat": -37.8481054, "lon": 145.0052368, "tags": {"brand": "Woolworths", "brand:wikidata": "Q3249145", "brand:wikipedia": "en:Woolworths Supermarkets", "name": "Woolworths", "operator": "Woolworths Group", "operator:wikidata": "Q607272", "shop": "supermarket", "website": "https://www.woolworths.com.au/"}}, {"type": "node", "id": 570698933, "lat": -37.8591642, "lon": 144.9777767, "tags": {"brand": "Woolworths Metro", "brand:wikidata": "Q111772555", "brand:wikipedia": "en:Woolworths Supermarkets", "full_name": "Woolworths Metro St Kilda West", "name": "Woolworths Metro", "operator": "Woolworths Group", "operator:wikidata": "Q607272", "shop": "supermarket", "website": "https://www.woolworths.com.au/"}}, {"type": "node", "id": 570758510, "lat": -37.8685209, "lon": 144.978811, "tags": {"addr:housenumber": "117", "addr:street": "Acland Street", "brand": "Woolworths", "brand:wikidata": "Q3249145", "brand:wikipedia": "en:Woolworths Supermarkets", "name": "Woolworths", "opening_hours": "Mo-Su 07:00-00:00", "operator": "Woolworths Group", "operator:wikidata": "Q607272", "phone": "+61 3 8347 5870", "shop": "supermarket", "website": "https://www.woolworths.com.au/"}}, {"type": "node", "id": 570758511, "lat": -37.8685845, "lon": 144.9806027, "tags": {"addr:housenumber": "181-189", "addr:street": "Barkly Street", "brand": "Coles", "brand:wikidata": "Q1108172", "brand:wikipedia": "en:Coles Supermarkets", "name": "Coles", "operator": "Coles Group", "operator:wikidata": "Q1339055", "shop": "supermarket", "website": "https://www.coles.com.au/"}}, {"type": "node", "id": 571048481, "lat": -37.8759591, "lon": 144.976373}, {"type": "node", "id": 571048486, "lat": -37.8758012, "lon": 144.976357}, {"type": "node", "id": 571048490, "lat": -37.875794, "lon": 144.97647}, {"type": "node", "id": 571048493, "lat": -37.875801, "lon": 144.9764682}, {"type": "node", "id": 573088804, "lat": -37.7985498, "lon": 144.978278, "tags": {"addr:housenumber": "293", "addr:street": "Brunswick Street", "shop": "bakery"}}, {"type": "node", "id": 573818021, "lat": -37.7888604, "lon": 144.9895506, "tags": {"addr:housenumber": "292-294", "addr:street": "Queens Parade", "name": "McCoppins Food & Wine", "opening_hours": "Mo-Sa 8:00-21:00; Su 9:00-21:00", "phone": "+61 3 9481 7566", "shop": "supermarket", "website": "https://www.mccoppins.com.au/"}}, {"type": "node", "id": 575347508, "lat": -37.845101, "lon": 144.9792926, "tags": {"brand": "7-Eleven", "brand:wikidata": "Q259340", "brand:wikipedia": "en:7-Eleven", "name": "7-Eleven", "phone": "+61 3 9525 1330", "shop": "convenience", "website": "https://www.7eleven.com.au/"}}, {"type": "node", "id": 575356730, "lat": -37.852015, "lon": 144.993573, "tags": {"brand": "7-Eleven", "brand:wikidata": "Q259340", "brand:wikipedia": "en:7-Eleven", "name": "7-Eleven", "shop": "convenience"}}, {"type": "node", "id": 576800317, "lat": -37.8534427, "lon": 144.993332, "tags": {"name": "Windsor Convenience Store", "shop": "convenience"}}, {"type": "node", "id": 576851605, "lat": -37.8601046, "lon": 144.9780522, "tags": {"amenity": "nightclub", "name": "Tongue and Groove"}}, {"type": "node", "id": 576854968, "lat": -37.826423, "lon": 144.9890739}, {"type": "node", "id": 576854971, "lat": -37.8266428, "lon": 144.9890359}, {"type": "node", "id": 576857802, "lat": -37.8600178, "lon": 144.9774365, "tags": {"name": "Let$ave Minimart", "shop": "convenience"}}, {"type": "node", "id": 577450591, "lat": -37.83932, "lon": 144.995332, "tags": {"amenity": "nightclub", "name": "Q12"}}, {"type": "node", "id": 578390766, "lat": -37.829439, "lon": 144.970885, "tags": {"addr:city": "Southbank", "addr:housenumber": "320", "addr:postcode": "3006", "addr:state": "VIC", "addr:street": "St Kilda Road", "addr:suburb": "Southbank", "atm": "yes", "branch": "St Kilda Road", "brand": "IGA", "brand:wikidata": "Q5970945", "name": "IGA Xpress", "opening_hours": "Mo-Fr 07:00-23:00; Sa-Su 08:00-23:00", "operator": "IGA", "phone": "+61 404 442 289", "shop": "convenience", "website": "https://www.iga.com.au/", "wheelchair": "yes"}}, {"type": "node", "id": 578839871, "lat": -37.830586, "lon": 144.969642, "tags": {"addr:city": "South Melbourne", "addr:housenumber": "27", "addr:postcode": "3205", "addr:state": "VIC", "addr:street": "Dorcas Street", "addr:suburb": "South Melbourne", "atm": "yes", "name": "For Lease", "shop": "convenience", "wheelchair": "no"}}, {"type": "node", "id": 580722996, "lat": -37.802712, "lon": 144.977554, "tags": {"addr:housenumber": "161-163", "addr:street": "Brunswick Street", "name": "KimChi Korean Japanese Grocery", "opening_hours": "Mo-Sa 10:00-22:00; Su 11:00-21:00", "phone": "+61 3 9416 3438", "shop": "supermarket"}}, {"type": "node", "id": 581945414, "lat": -37.8177241, "lon": 144.9901706, "tags": {"addr:housenumber": "2A", "name": "Richmond Jolimont Convenience Store", "shop": "convenience"}}, {"type": "node", "id": 582458364, "lat": -37.7879325, "lon": 145.0001138, "tags": {"name": "New Mini World Milk Bar", "shop": "convenience"}}, {"type": "node", "id": 582732608, "lat": -37.8318532, "lon": 144.9695823, "tags": {"addr:city": "South Melbourne", "addr:housenumber": "3", "addr:postcode": "3205", "addr:street": "Bank Street", "name": "Food Puzzle Asian Grocery", "opening_hours": "Mo-Fr 8:00-21:00;Sa-Su 10:00-20:00", "shop": "convenience", "wheelchair": "no"}}, {"type": "node", "id": 583071809, "lat": -37.831001, "lon": 144.9594127, "tags": {"addr:housenumber": "206", "addr:postcode": "3205", "addr:street": "Clarendon Street", "brand": "7-Eleven", "brand:wikidata": "Q259340", "brand:wikipedia": "en:7-Eleven", "name": "7-Eleven", "shop": "convenience", "website": "https://www.7eleven.com.au/"}}, {"type": "node", "id": 584413498, "lat": -37.8349763, "lon": 144.9612663, "tags": {"addr:housenumber": "356", "addr:street": "Clarendon Street", "name": "South Melbourne Bakery", "phone": "+61 3 9696 3142", "shop": "bakery", "website": "https://thesouthmelbournebakery.com.au/"}}, {"type": "node", "id": 585344628, "lat": -37.814989, "lon": 144.965733, "tags": {"amenity": "theatre", "name": "RMIT Capitol Theatre", "operator": "RMIT University"}}, {"type": "node", "id": 588402316, "lat": -37.798248, "lon": 144.976354, "tags": {"addr:city": "Fitzroy", "addr:housenumber": "50", "addr:postcode": "3065", "addr:street": "Johnston Street", "amenity": "nightclub", "name": "Laundry"}}, {"type": "node", "id": 588994140, "lat": -37.8104631, "lon": 144.9724557}, {"type": "node", "id": 588994143, "lat": -37.8105834, "lon": 144.9720269}, {"type": "node", "id": 588994146, "lat": -37.8108152, "lon": 144.972131}, {"type": "node", "id": 588994150, "lat": -37.8107989, "lon": 144.9722043}, {"type": "node", "id": 588994152, "lat": -37.8109594, "lon": 144.9722764}, {"type": "node", "id": 589036120, "lat": -37.8108182, "lon": 144.9693299}, {"type": "node", "id": 589175911, "lat": -37.811183, "lon": 144.972166, "tags": {"addr:city": "Melbourne", "addr:housenumber": "20-30", "addr:postcode": "3000", "addr:street": "Bourke Street", "amenity": "theatre", "fax": "+61 3 9650 3225", "name": "Palace Theatre", "phone": "+61 3 9650 0180", "website": "http://www.palace.com.au/", "wikidata": "Q7126198"}}, {"type": "node", "id": 591294594, "lat": -37.8166015, "lon": 144.9668331, "tags": {"brand": "7-Eleven", "brand:wikidata": "Q259340", "brand:wikipedia": "en:7-Eleven", "check_date": "2022-07-20", "level": "0", "name": "7-Eleven", "opening_hours": "24/7", "shop": "convenience", "website": "https://www.7eleven.com.au/"}}, {"type": "node", "id": 591309805, "lat": -37.8167829, "lon": 144.9693025}, {"type": "node", "id": 591309818, "lat": -37.816281, "lon": 144.9690798}, {"type": "node", "id": 591309823, "lat": -37.8161672, "lon": 144.9694746}, {"type": "node", "id": 591309828, "lat": -37.8166574, "lon": 144.969705}, {"type": "node", "id": 591382457, "lat": -37.8175611, "lon": 144.9649673, "tags": {"addr:housenumber": "276", "addr:street": "Flinders Street", "branch": "Melbourne Central", "brand": "Coles", "brand:wikidata": "Q1108172", "brand:wikipedia": "en:Coles Supermarkets", "name": "Coles", "opening_hours": "Mo-Fr 06:00-24:00; Sa,Su 07:00-24:00", "operator": "Coles Group", "operator:wikidata": "Q1339055", "shop": "supermarket", "website": "https://www.coles.com.au/", "wheelchair": "yes"}}, {"type": "node", "id": 594339252, "lat": -37.8152969, "lon": 144.9662503, "tags": {"addr:city": "Melbourne", "addr:housenumber": "101", "addr:postcode": "3000", "addr:street": "Swanston Street", "name": "City Convenience Store", "shop": "convenience"}}, {"type": "node", "id": 594812219, "lat": -37.8119711, "lon": 144.9674652, "tags": {"brand": "7-Eleven", "brand:wikidata": "Q259340", "brand:wikipedia": "en:7-Eleven", "check_date": "2024-08-08", "name": "7-Eleven", "shop": "convenience", "website": "https://www.7eleven.com.au/"}}, {"type": "node", "id": 594819685, "lat": -37.8123424, "lon": 144.9672583, "tags": {"addr:city": "Melbourne", "addr:housenumber": "200", "addr:postcode": "3000", "addr:street": "Bourke Street", "amenity": "cinema", "name": "Chinatown Cinema", "website": "https://www.heroic-cinema.com/chinatown/"}}, {"type": "node", "id": 595484156, "lat": -37.813583, "lon": 144.965992, "tags": {"addr:city": "Melbourne", "addr:housenumber": "118", "addr:postcode": "3000", "addr:street": "Bourke Street", "brand": "7-Eleven", "brand:wikidata": "Q259340", "brand:wikipedia": "en:7-Eleven", "name": "7-Eleven", "opening_hours": "24/7", "shop": "convenience", "website": "https://www.7eleven.com.au/"}}, {"type": "node", "id": 595501090, "lat": -37.825805, "lon": 144.957017, "tags": {"addr:city": "Southbank", "addr:housenumber": "46", "addr:postcode": "3006", "addr:state": "VIC", "addr:street": "Whiteman Street", "brand": "IGA", "brand:wikidata": "Q5970945", "brand:wikipedia": "en:IGA (supermarkets)", "level": "0", "name": "IGA X-press + Liquor", "opening_hours": "Mo-Su 08:00-23:00", "shop": "supermarket", "wheelchair": "designated"}}, {"type": "node", "id": 595503060, "lat": -37.8164808, "lon": 144.961159, "tags": {"brand": "IGA", "brand:wikidata": "Q5970945", "brand:wikipedia": "en:IGA (Australian supermarket group)", "name": "IGA", "shop": "supermarket", "website": "https://www.iga.com.au/", "wheelchair": "yes"}}, {"type": "node", "id": 595787645, "lat": -37.8103168, "lon": 144.969541, "tags": {"brand": "7-Eleven", "brand:wikidata": "Q259340", "brand:wikipedia": "en:7-Eleven", "name": "7-Eleven", "shop": "convenience"}}, {"type": "node", "id": 595793509, "lat": -37.812154, "lon": 144.9708339, "tags": {"brand": "7-Eleven", "brand:wikidata": "Q259340", "brand:wikipedia": "en:7-Eleven", "building": "retail", "name": "7-Eleven", "opening_hours": "24/7", "shop": "convenience", "wheelchair": "yes"}}, {"type": "node", "id": 595793600, "lat": -37.812155, "lon": 144.969651, "tags": {"brand": "7-Eleven", "brand:wikidata": "Q259340", "brand:wikipedia": "en:7-Eleven", "building": "retail", "name": "7-Eleven", "shop": "convenience"}}, {"type": "node", "id": 597923771, "lat": -37.8117442, "lon": 144.9694036, "tags": {"addr:city": "Melbourne", "addr:housenumber": "18", "addr:postcode": "3000", "addr:street": "Market Lane", "amenity": "nightclub", "name": "Ding Dong Lounge"}}, {"type": "node", "id": 598405141, "lat": -37.8149917, "lon": 144.9637058, "tags": {"name": "Letsave Convenience Store", "shop": "convenience"}}, {"type": "node", "id": 602480374, "lat": -37.7436481, "lon": 145.067105, "tags": {"amenity": "theatre", "name": "Heidelberg Theatre Company"}}, {"type": "node", "id": 602904712, "lat": -37.699412, "lon": 144.7778007, "tags": {"brand": "Woolworths", "brand:wikidata": "Q3249145", "brand:wikipedia": "en:Woolworths Supermarkets", "name": "Woolworths", "operator": "Woolworths Group", "operator:wikidata": "Q607272", "shop": "supermarket", "website": "https://www.woolworths.com.au/"}}, {"type": "node", "id": 602905164, "lat": -37.699312, "lon": 144.7785142, "tags": {"brand": "ALDI", "brand:wikidata": "Q41171672", "brand:wikipedia": "en:Aldi", "name": "ALDI", "shop": "supermarket", "website": "https://www.coles.com.au/"}}, {"type": "node", "id": 607756380, "lat": -37.818065, "lon": 144.9646849, "tags": {"brand": "7-Eleven", "brand:wikidata": "Q259340", "brand:wikipedia": "en:7-Eleven", "check_date": "2022-07-19", "level": "0", "name": "7-Eleven", "opening_hours": "24/7", "shop": "convenience", "website": "https://www.7eleven.com.au/", "wheelchair": "no"}}, {"type": "node", "id": 608812323, "lat": -37.8177302, "lon": 144.9621509, "tags": {"brand": "7-Eleven", "brand:wikidata": "Q259340", "brand:wikipedia": "en:7-Eleven", "name": "7-Eleven", "shop": "convenience", "website": "https://www.7eleven.com.au/", "wheelchair": "yes"}}, {"type": "node", "id": 612741105, "lat": -37.8152834, "lon": 144.9618789, "tags": {"addr:city": "Melbourne", "addr:housenumber": "14", "addr:postcode": "3000", "addr:street": "McKillop Street", "amenity": "nightclub", "name": "CBD"}}, {"type": "node", "id": 613295128, "lat": -37.8186579, "lon": 144.9676657, "tags": {"level": "0", "name": "Hub Convenience", "shop": "convenience", "wheelchair": "yes"}}, {"type": "node", "id": 613316143, "lat": -37.8143347, "lon": 144.9620818, "tags": {"addr:city": "Melbourne", "addr:housenumber": "388", "addr:postcode": "3000", "addr:street": "Bourke Street", "brand": "7-Eleven", "brand:wikidata": "Q259340", "brand:wikipedia": "en:7-Eleven", "name": "7-Eleven", "shop": "convenience", "website": "https://www.7eleven.com.au/"}}, {"type": "node", "id": 613996660, "lat": -37.811152, "lon": 144.965377, "tags": {"brand": "Woolworths", "brand:wikidata": "Q3249145", "brand:wikipedia": "en:Woolworths Supermarkets", "full_name": "Woolworths QV", "name": "Woolworths", "operator": "Woolworths Group", "operator:wikidata": "Q607272", "shop": "supermarket", "website": "https://www.woolworths.com.au", "wheelchair": "yes"}}, {"type": "node", "id": 614041131, "lat": -37.811806, "lon": 144.972173, "tags": {"addr:city": "Melbourne", "addr:housenumber": "35", "addr:postcode": "3000", "addr:street": "Bourke Street", "atm": "yes", "brand": "7-Eleven", "brand:wikidata": "Q259340", "brand:wikipedia": "en:7-Eleven", "name": "7-Eleven", "opening_hours": "24/7", "shop": "convenience", "wheelchair": "no"}}, {"type": "node", "id": 614502866, "lat": -37.813985, "lon": 144.960495, "tags": {"internet_access": "terminal", "name": "City Convenience Store", "shop": "convenience", "wheelchair": "yes"}}, {"type": "node", "id": 616589598, "lat": -37.838626, "lon": 144.942068, "tags": {"addr:city": "Port Melbourne", "addr:country": "AU", "addr:housenumber": "201", "addr:postcode": "3207", "addr:state": "VIC", "addr:street": "Bay Street", "brand": "Bakers Delight", "brand:wikidata": "Q4849261", "brand:wikipedia": "en:Bakers Delight", "name": "Bakers Delight", "shop": "bakery", "toilets:wheelchair": "no", "website": "https://www.bakersdelight.com.au/", "wheelchair": "yes"}}, {"type": "node", "id": 616602030, "lat": -37.84107, "lon": 144.940275, "tags": {"addr:city": "Port Melboune", "addr:housename": "Bianca", "addr:housenumber": "120", "addr:postcode": "3207", "addr:street": "Bay Street", "name": "About Life", "shop": "supermarket", "website": "https://www.aboutlife.com.au/", "wheelchair": "yes"}}, {"type": "node", "id": 619027750, "lat": -37.8418505, "lon": 144.9395728, "tags": {"addr:city": "Port Melbourne", "addr:country": "AU", "addr:housenumber": "78", "addr:postcode": "3207", "addr:state": "VIC", "addr:street": "Bay Street", "name": "Port Melbourne IGA", "opening_hours": "Mo-Sa 06:30-24:00, Su 07:30-24:00", "shop": "supermarket", "toilets:wheelchair": "no", "wheelchair": "yes"}}, {"type": "node", "id": 621538869, "lat": -37.8875799, "lon": 144.6070184}, {"type": "node", "id": 621538870, "lat": -37.8873151, "lon": 144.6070547}, {"type": "node", "id": 621538871, "lat": -37.8873041, "lon": 144.6069378}, {"type": "node", "id": 621539359, "lat": -37.8876106, "lon": 144.6073614}, {"type": "node", "id": 621539361, "lat": -37.8871837, "lon": 144.6069548}, {"type": "node", "id": 621539362, "lat": -37.8871952, "lon": 144.6070664}, {"type": "node", "id": 621539363, "lat": -37.8871698, "lon": 144.6070704}, {"type": "node", "id": 621539364, "lat": -37.8872068, "lon": 144.6074499}, {"type": "node", "id": 621539365, "lat": -37.8873878, "lon": 144.6074204}, {"type": "node", "id": 621539366, "lat": -37.8873846, "lon": 144.6073869}, {"type": "node", "id": 621539656, "lat": -37.8880208, "lon": 144.6072287, "tags": {"brand": "Woolworths", "brand:wikidata": "Q3249145", "brand:wikipedia": "en:Woolworths Supermarkets", "name": "Woolworths", "shop": "supermarket", "website": "https://www.woolworths.com.au/"}}, {"type": "node", "id": 621540613, "lat": -37.8871869, "lon": 144.6069666}, {"type": "node", "id": 622313296, "lat": -37.7964901, "lon": 144.9789495, "tags": {"addr:housenumber": "360A", "addr:street": "Brunswick Street", "atm": "yes", "name": "Select 7", "opening_hours": "24/7", "shop": "convenience"}}, {"type": "node", "id": 622313961, "lat": -37.7965431, "lon": 144.9789415, "tags": {"name": "Babka Bakery Cafe", "shop": "bakery"}}, {"type": "node", "id": 623879153, "lat": -37.7962793, "lon": 144.9749415, "tags": {"addr:housenumber": "165", "addr:street": "Nicholson Street", "name": "Nicholson Street Mini Market", "opening_hours": "Mo-Sa 11:00-18:00", "phone": "+61 3 9347 0806", "shop": "convenience"}}, {"type": "node", "id": 623884178, "lat": -37.7944338, "lon": 144.9752898, "tags": {"addr:housenumber": "237", "addr:street": "Nicholson Street", "name": "The French Lettuce", "opening_hours": "Mo-Su 07:00-15:00; PH off", "phone": "+61 3 9347 7105", "shop": "bakery", "website": "https://www.thefrenchlettuce.com/"}}, {"type": "node", "id": 626256104, "lat": -37.8189262, "lon": 144.9572129, "tags": {"addr:city": "Melbourne", "addr:housenumber": "54-60", "addr:postcode": "3000", "addr:street": "King Street", "amenity": "nightclub", "name": "Inflation", "phone": "+61 3 9614 6122", "website": "http://www.inflation.com.au"}}, {"type": "node", "id": 631481378, "lat": -37.9031065, "lon": 145.0366448}, {"type": "node", "id": 631481379, "lat": -37.9030783, "lon": 145.0364131}, {"type": "node", "id": 631481380, "lat": -37.9032828, "lon": 145.0363713}, {"type": "node", "id": 631481381, "lat": -37.9031948, "lon": 145.036627}, {"type": "node", "id": 632178387, "lat": -37.6496132, "lon": 145.0760673}, {"type": "node", "id": 632178390, "lat": -37.6497853, "lon": 145.0760419}, {"type": "node", "id": 632178392, "lat": -37.6497991, "lon": 145.0761905}, {"type": "node", "id": 632178394, "lat": -37.649627, "lon": 145.076216}, {"type": "node", "id": 632180759, "lat": -37.6590715, "lon": 145.0188384}, {"type": "node", "id": 632180760, "lat": -37.6590976, "lon": 145.0189243}, {"type": "node", "id": 632180761, "lat": -37.6590399, "lon": 145.0190317}, {"type": "node", "id": 632180762, "lat": -37.6589998, "lon": 145.018872}, {"type": "node", "id": 632189817, "lat": -37.6705354, "lon": 144.85393}, {"type": "node", "id": 632194381, "lat": -37.6926014, "lon": 144.9148343}, {"type": "node", "id": 632194382, "lat": -37.6926386, "lon": 144.9148105}, {"type": "node", "id": 632194383, "lat": -37.6926953, "lon": 144.9148157}, {"type": "node", "id": 632194384, "lat": -37.6926927, "lon": 144.914862}, {"type": "node", "id": 632194385, "lat": -37.6927343, "lon": 144.9148658}, {"type": "node", "id": 632194386, "lat": -37.6927166, "lon": 144.9151738}, {"type": "node", "id": 632194387, "lat": -37.6925742, "lon": 144.9151549}, {"type": "node", "id": 632194388, "lat": -37.6925773, "lon": 144.9151033}, {"type": "node", "id": 632194389, "lat": -37.6925664, "lon": 144.9151023}, {"type": "node", "id": 632194390, "lat": -37.6925724, "lon": 144.915006}, {"type": "node", "id": 632194391, "lat": -37.692584, "lon": 144.9150071}, {"type": "node", "id": 632194392, "lat": -37.6925931, "lon": 144.9148601}, {"type": "node", "id": 632803540, "lat": -37.6873814, "lon": 144.8817844}, {"type": "node", "id": 632803543, "lat": -37.6874284, "lon": 144.8817777}, {"type": "node", "id": 632803546, "lat": -37.6874465, "lon": 144.881981}, {"type": "node", "id": 632803550, "lat": -37.6873995, "lon": 144.8819877}, {"type": "node", "id": 632805811, "lat": -37.6869539, "lon": 144.8829726}, {"type": "node", "id": 632805816, "lat": -37.6870555, "lon": 144.8829614}, {"type": "node", "id": 632805822, "lat": -37.6870706, "lon": 144.8831798}, {"type": "node", "id": 632805839, "lat": -37.686969, "lon": 144.883191}, {"type": "node", "id": 632938343, "lat": -37.796538, "lon": 144.7899096}, {"type": "node", "id": 632938350, "lat": -37.7965436, "lon": 144.7902444}, {"type": "node", "id": 634757647, "lat": -37.8129725, "lon": 144.9567415, "tags": {"brand": "7-Eleven", "brand:wikidata": "Q259340", "brand:wikipedia": "en:7-Eleven", "name": "7-Eleven", "opening_hours": "24/7", "shop": "convenience", "website": "https://www.7eleven.com.au/"}}, {"type": "node", "id": 636164551, "lat": -37.6849958, "lon": 144.8820693}, {"type": "node", "id": 636164554, "lat": -37.6851263, "lon": 144.8820438}, {"type": "node", "id": 636164556, "lat": -37.6851418, "lon": 144.8821752}, {"type": "node", "id": 636164559, "lat": -37.6851014, "lon": 144.8822323}, {"type": "node", "id": 636164561, "lat": -37.6850122, "lon": 144.8822457}, {"type": "node", "id": 636217129, "lat": -37.7272917, "lon": 144.895358, "tags": {"addr:housenumber": "30", "addr:postcode": "3041", "addr:state": "VIC", "addr:street": "English Street", "addr:suburb": "Essendon Fields", "brand": "Coles", "brand:wikidata": "Q1108172", "brand:wikipedia": "en:Coles Supermarkets", "name": "Coles", "shop": "supermarket", "website": "https://www.coles.com.au/"}}, {"type": "node", "id": 636238316, "lat": -37.7382064, "lon": 144.8938626}, {"type": "node", "id": 636238318, "lat": -37.7382483, "lon": 144.8937593}, {"type": "node", "id": 636238320, "lat": -37.7382828, "lon": 144.8937814}, {"type": "node", "id": 636238323, "lat": -37.7382377, "lon": 144.8938894}, {"type": "node", "id": 636241120, "lat": -37.7396673, "lon": 144.8973402}, {"type": "node", "id": 636241130, "lat": -37.7398094, "lon": 144.8973167}, {"type": "node", "id": 636241134, "lat": -37.7398312, "lon": 144.8974998}, {"type": "node", "id": 636241136, "lat": -37.739724, "lon": 144.8975192}, {"type": "node", "id": 636241139, "lat": -37.73968, "lon": 144.8974871}, {"type": "node", "id": 636904562, "lat": -37.8320489, "lon": 144.9657499}, {"type": "node", "id": 642422658, "lat": -37.8729991, "lon": 145.0380875}, {"type": "node", "id": 642422659, "lat": -37.8730732, "lon": 145.03806}, {"type": "node", "id": 642422663, "lat": -37.8730803, "lon": 145.038087}, {"type": "node", "id": 642422670, "lat": -37.8730945, "lon": 145.0381515}, {"type": "node", "id": 642422684, "lat": -37.873015, "lon": 145.0381793}, {"type": "node", "id": 642423453, "lat": -37.8730113, "lon": 145.0381478}, {"type": "node", "id": 642429650, "lat": -37.8194311, "lon": 144.9545735, "tags": {"addr:city": "Melbourne", "addr:housenumber": "58-62", "addr:postcode": "3000", "addr:street": "Spencer Street", "level": "0", "name": "Royale Food Store", "opening_hours": "Tu-We,Su 12:00-22:00; Th-Sa 12:00-23:00; PH closed", "shop": "convenience", "wheelchair": "yes"}}, {"type": "node", "id": 642709036, "lat": -37.8188477, "lon": 144.9542821, "tags": {"brand": "7-Eleven", "brand:wikidata": "Q259340", "brand:wikipedia": "en:7-Eleven", "check_date": "2022-07-19", "level": "0", "name": "7-Eleven", "opening_hours": "24/7", "shop": "convenience", "wheelchair": "yes"}}, {"type": "node", "id": 642755969, "lat": -37.8655342, "lon": 144.9903199}, {"type": "node", "id": 642755974, "lat": -37.8655447, "lon": 144.9903999}, {"type": "node", "id": 642755978, "lat": -37.8654204, "lon": 144.9904259}, {"type": "node", "id": 642755983, "lat": -37.8654105, "lon": 144.9903487}, {"type": "node", "id": 643980279, "lat": -37.8261834, "lon": 145.0001485}, {"type": "node", "id": 643980284, "lat": -37.8260669, "lon": 144.9999781}, {"type": "node", "id": 643980290, "lat": -37.8260309, "lon": 144.999958}, {"type": "node", "id": 643980294, "lat": -37.8260203, "lon": 144.9998722}, {"type": "node", "id": 643981758, "lat": -37.826033, "lon": 144.9998709}, {"type": "node", "id": 643981769, "lat": -37.8261209, "lon": 144.9998588}, {"type": "node", "id": 643981814, "lat": -37.8261304, "lon": 144.9999299}, {"type": "node", "id": 643981819, "lat": -37.8261569, "lon": 144.9999258}, {"type": "node", "id": 643981827, "lat": -37.8261792, "lon": 144.9999527}, {"type": "node", "id": 643981832, "lat": -37.8262056, "lon": 145.0001123}, {"type": "node", "id": 643981839, "lat": -37.8261029, "lon": 144.9999419}, {"type": "node", "id": 644005030, "lat": -37.831201, "lon": 144.9972627}, {"type": "node", "id": 644005035, "lat": -37.8313465, "lon": 144.9972351}, {"type": "node", "id": 644005039, "lat": -37.8313576, "lon": 144.9973289}, {"type": "node", "id": 644005045, "lat": -37.8312121, "lon": 144.9973565}, {"type": "node", "id": 646215518, "lat": -37.8183956, "lon": 144.9542122, "tags": {"name": "India Impex", "shop": "convenience"}}, {"type": "node", "id": 652306219, "lat": -37.8043121, "lon": 144.9772738, "tags": {"addr:city": "Fitzroy", "addr:housenumber": "109", "addr:postcode": "3065", "addr:street": "Brunswick Street", "name": "Quick Convenience Store", "opening_hours": "Mo-We 6:30-22:30; Th-Sa 6:30-23:00; Su 7:30-22:30", "shop": "convenience"}}, {"type": "node", "id": 652307819, "lat": -37.8044181, "lon": 144.9772684, "tags": {"addr:housenumber": "105", "addr:street": "Brunswick Street", "name": "Sika Supermarket", "phone": "+61 3 9495 6722", "shop": "supermarket"}}, {"type": "node", "id": 660024091, "lat": -37.816218, "lon": 144.955421, "tags": {"atm": "yes", "brand": "7-Eleven", "brand:wikidata": "Q259340", "brand:wikipedia": "en:7-Eleven", "name": "7-Eleven", "opening_hours": "24/7", "phone": "+61 3 9670 6077", "shop": "convenience", "website": "https://www.7eleven.com.au/"}}, {"type": "node", "id": 660116315, "lat": -37.81148, "lon": 144.971995, "tags": {"atm": "yes", "building": "retail", "internet_access": "wired", "name": "City Express and Liquor", "opening_hours": "24/7", "phone": "+61 3 9650 8377", "shop": "convenience", "wheelchair": "yes"}}, {"type": "node", "id": 661600405, "lat": -37.7871515, "lon": 144.92789, "tags": {"air_conditioning": "yes", "brand": "Woolworths", "brand:wikidata": "Q3249145", "brand:wikipedia": "en:Woolworths Supermarkets", "name": "Woolworths", "opening_hours": "Mo-Su 06:00-23:00", "operator": "Woolworths Group", "operator:wikidata": "Q607272", "shop": "supermarket", "stroller": "yes", "website": "https://www.woolworths.com.au/", "wheelchair": "yes"}}, {"type": "node", "id": 663120911, "lat": -37.8001886, "lon": 144.9549359}, {"type": "node", "id": 663120912, "lat": -37.800228, "lon": 144.9548837}, {"type": "node", "id": 663120913, "lat": -37.8003591, "lon": 144.9550457}, {"type": "node", "id": 663120914, "lat": -37.8002775, "lon": 144.9551514}, {"type": "node", "id": 663120915, "lat": -37.8002397, "lon": 144.9550998}, {"type": "node", "id": 663120916, "lat": -37.8002526, "lon": 144.9550794}, {"type": "node", "id": 664341258, "lat": -37.8203509, "lon": 144.968215}, {"type": "node", "id": 664341259, "lat": -37.8204165, "lon": 144.9680051}, {"type": "node", "id": 664341260, "lat": -37.8204073, "lon": 144.9678913}, {"type": "node", "id": 664341261, "lat": -37.8203704, "lon": 144.967787}, {"type": "node", "id": 664341262, "lat": -37.8201933, "lon": 144.9676328}, {"type": "node", "id": 664341263, "lat": -37.819874, "lon": 144.9678357}, {"type": "node", "id": 664341264, "lat": -37.8198877, "lon": 144.9681667}, {"type": "node", "id": 664341265, "lat": -37.8200217, "lon": 144.9683156}, {"type": "node", "id": 664341266, "lat": -37.8201995, "lon": 144.9683341, "tags": {"entrance": "main"}}, {"type": "node", "id": 665175180, "lat": -37.6762329, "lon": 144.886694}, {"type": "node", "id": 665615464, "lat": -37.6648833, "lon": 144.7476399, "tags": {"name": "BP", "shop": "convenience", "website": "www.bp.com.au"}}, {"type": "node", "id": 665618140, "lat": -37.6653801, "lon": 144.7536225, "tags": {"brand": "BP Shop", "brand:wikidata": "Q152057", "name": "BP Shop", "shop": "convenience", "website": "www.bp.com.au"}}, {"type": "node", "id": 666846427, "lat": -37.7758181, "lon": 144.9618499, "tags": {"brand": "Woolworths", "brand:wikidata": "Q3249145", "brand:wikipedia": "en:Woolworths Supermarkets", "full_name": "Woolworths Barkly Square", "name": "Woolworths", "opening_hours": "Mo-Su 7:00-0:00", "operator": "Woolworths Group", "operator:wikidata": "Q607272", "phone": "+61 3 9381 4442", "shop": "supermarket", "website": "https://www.woolworths.com.au/"}}, {"type": "node", "id": 666846439, "lat": -37.7758523, "lon": 144.9626265, "tags": {"brand": "Coles", "brand:wikidata": "Q1108172", "brand:wikipedia": "en:Coles Supermarkets", "full_name": "Coles Brunswick", "name": "Coles", "opening_hours": "Mo-Su 7:00-0:00", "operator": "Coles Group", "operator:wikidata": "Q1339055", "phone": "+61 3 9387 6122", "shop": "supermarket", "website": "https://www.coles.com.au/"}}, {"type": "node", "id": 667225621, "lat": -37.8147983, "lon": 144.9518038, "tags": {"addr:city": "Melbourne", "addr:housenumber": "201", "addr:postcode": "3000", "addr:street": "Spencer Street", "brand": "Coles", "brand:wikidata": "Q1108172", "brand:wikipedia": "en:Coles Supermarkets", "layer": "0", "level": "0", "name": "Coles", "operator": "Coles Group", "operator:wikidata": "Q1339055", "phone": "+61 3 9600 2899", "shop": "supermarket", "website": "https://www.coles.com.au/"}}, {"type": "node", "id": 669188509, "lat": -37.7691345, "lon": 145.0013383, "tags": {"addr:housenumber": "25", "addr:street": "Separation Street", "branch": "Northcote South", "brand": "Coles", "brand:wikidata": "Q1108172", "brand:wikipedia": "en:Coles Supermarkets", "name": "Coles", "operator": "Coles Group", "operator:wikidata": "Q1339055", "shop": "supermarket", "website": "https://www.coles.com.au/find-stores/coles/vic/northcote-7784"}}, {"type": "node", "id": 669188593, "lat": -37.768958, "lon": 145.000045, "tags": {"brand": "ALDI", "brand:wikidata": "Q41171672", "brand:wikipedia": "en:Aldi", "check_date:opening_hours": "2023-05-05", "full_name": "ALDI Northcote", "name": "ALDI", "opening_hours": "Mo-Fr 08:30-20:00; Sa-Su 08:30-19:00", "shop": "supermarket", "website": "https://store.aldi.com.au/vic/northcote/cnr-high-street-seperation-street", "wheelchair": "yes"}}, {"type": "node", "id": 670092371, "lat": -37.7979262, "lon": 144.9759075, "tags": {"addr:housenumber": "25", "addr:street": "Johnston Street", "description": "Spanish and Portuguese supermarket and delicatessen", "name": "Casa Iberica", "opening_hours": "Mo-Th 7:30-18:30; Fr 7:30-19:00; Sa 7:30-15:00", "phone": "+61 3 9419 4420", "shop": "supermarket"}}, {"type": "node", "id": 676629592, "lat": -37.8005896, "lon": 144.9672054, "tags": {"addr:city": "Carlton", "addr:housenumber": "262", "addr:postcode": "3053", "addr:street": "Lygon Street", "addr:unit": "1", "name": "EzyMart", "shop": "convenience"}}, {"type": "node", "id": 678344425, "lat": -37.8008438, "lon": 144.9663294, "tags": {"addr:housenumber": "91", "addr:street": "Grattan Street", "atm": "yes", "name": "Smart Mart", "shop": "convenience"}}, {"type": "node", "id": 679722417, "lat": -37.7981636, "lon": 144.9777803}, {"type": "node", "id": 679722418, "lat": -37.7975074, "lon": 144.9778958}, {"type": "node", "id": 679722419, "lat": -37.7975385, "lon": 144.9781793}, {"type": "node", "id": 679778877, "lat": -37.8691963, "lon": 144.8301563}, {"type": "node", "id": 679778878, "lat": -37.8691699, "lon": 144.8297128}, {"type": "node", "id": 679778879, "lat": -37.86863, "lon": 144.8298089}, {"type": "node", "id": 679778880, "lat": -37.8686733, "lon": 144.8302629}, {"type": "node", "id": 681285046, "lat": -37.8129376, "lon": 144.9902992}, {"type": "node", "id": 681285069, "lat": -37.8129494, "lon": 144.9904153}, {"type": "node", "id": 681285196, "lat": -37.8080167, "lon": 144.9920713, "tags": {"brand": "Star Mart", "brand:wikidata": "Q61994857", "name": "Star Mart", "shop": "convenience"}}, {"type": "node", "id": 681295749, "lat": -37.8275413, "lon": 144.8814815}, {"type": "node", "id": 681295750, "lat": -37.8276559, "lon": 144.8814618}, {"type": "node", "id": 681295751, "lat": -37.8276686, "lon": 144.8815801}, {"type": "node", "id": 681295752, "lat": -37.827554, "lon": 144.8815999}, {"type": "node", "id": 689776348, "lat": -37.8839474, "lon": 144.9977951}, {"type": "node", "id": 689776349, "lat": -37.8840671, "lon": 144.9977672}, {"type": "node", "id": 689776350, "lat": -37.884054, "lon": 144.9976653}, {"type": "node", "id": 689776371, "lat": -37.8839536, "lon": 144.9975804}, {"type": "node", "id": 696604870, "lat": -37.8015633, "lon": 144.9839515, "tags": {"addr:housenumber": "252", "addr:street": "Smith Street", "name": "Sunny's Bakery", "opening_hours": "Mo-Sa 6:00-18:00; Su 7:00-18:00", "phone": "+61 3 9419 8804", "shop": "bakery", "takeaway": "yes", "wheelchair": "yes"}}, {"type": "node", "id": 697190767, "lat": -37.8577633, "lon": 144.8825866, "tags": {"addr:housenumber": "71", "addr:postcode": "3016", "addr:state": "VIC", "addr:street": "Kororoit Creek Road", "addr:suburb": "Williamstown", "brand": "Woolworths", "brand:wikidata": "Q3249145", "name": "Woolworths", "opening_hours": "Mo-Su 07:00-22:00", "operator": "Woolworths Group", "operator:wikidata": "Q607272", "shop": "supermarket", "website": "https://www.woolworths.com.au/"}}, {"type": "node", "id": 699639872, "lat": -37.7357411, "lon": 144.9826525, "tags": {"shop": "convenience", "source": "survey"}}, {"type": "node", "id": 700688508, "lat": -37.807877, "lon": 144.971016, "tags": {"atm": "yes", "name": "Ezy Convenience", "shop": "convenience"}}, {"type": "node", "id": 700689980, "lat": -37.808118, "lon": 144.968483, "tags": {"brand": "IGA", "brand:wikidata": "Q5970945", "name": "IGA X-press plus Liquor", "shop": "convenience"}}, {"type": "node", "id": 700694424, "lat": -37.8098899, "lon": 144.9669948, "tags": {"name": "Lucky 7", "shop": "convenience"}}, {"type": "node", "id": 703585381, "lat": -37.813024, "lon": 144.967969, "tags": {"addr:city": "Melbourne", "addr:housenumber": "181", "addr:postcode": "3000", "addr:street": "Bourke Street", "brand": "EzyMart", "brand:wikidata": "Q117220554", "building": "retail", "name": "EzyMart", "shop": "convenience"}}, {"type": "node", "id": 705056574, "lat": -37.8000462, "lon": 144.9839004, "tags": {"addr:housenumber": "297", "addr:street": "Smith Street", "name": "Smith's Cakes & Aquilana Pasticceria", "opening_hours": "Mo-Th 8:00-19:00; Fr 8:00-21:00; Sa 8:00-18:00; Su 10:30-13:00", "phone": "+61 3 9419 4351", "shop": "bakery"}}, {"type": "node", "id": 706917145, "lat": -37.817579, "lon": 144.9683001, "tags": {"brand": "7-Eleven", "brand:wikidata": "Q259340", "brand:wikipedia": "en:7-Eleven", "level": "0", "name": "7-Eleven", "shop": "convenience", "website": "https://www.7eleven.com.au/"}}, {"type": "node", "id": 708373055, "lat": -37.7777999, "lon": 144.7559358, "tags": {"addr:housenumber": "8", "addr:postcode": "3023", "addr:state": "VIC", "addr:street": "Hatchlands Drive", "addr:suburb": "Deer Park", "addr:unit": "10", "brand": "IGA", "brand:wikidata": "Q3146662", "brand:wikipedia": "en:IGA (supermarkets)", "fax": "+61 2 9741 3399", "name": "IGA", "opening_hours": "Mo-Fr 07:00-21:00; Sa 08:00-21:00; Su 08:00-20:00", "operator": "10/8 Hatchlands Dr, Deer Park VIC 3023", "phone": "+61 3 8390 0811", "shop": "supermarket", "website": "http://iga.com.au/", "wheelchair": "yes"}}, {"type": "node", "id": 716358458, "lat": -37.805942, "lon": 144.98017, "tags": {"addr:city": "Fitzroy", "addr:housenumber": "169", "addr:postcode": "3065", "addr:state": "VIC", "addr:street": "Gertrude Street", "addr:suburb": "Fitzroy", "branch": "Fitzroy", "brand": "Foodworks", "brand:wikidata": "Q5465579", "brand:wikipedia": "en:FoodWorks", "name": "Foodworks", "shop": "supermarket", "website": "https://www.foodworks.com.au/"}}, {"type": "node", "id": 719501705, "lat": -37.8691449, "lon": 145.0603272, "tags": {"shop": "bakery", "source": "survey"}}, {"type": "node", "id": 720546787, "lat": -37.9073508, "lon": 145.0699462}, {"type": "node", "id": 720546788, "lat": -37.9071296, "lon": 145.0699878}, {"type": "node", "id": 720546789, "lat": -37.9071981, "lon": 145.0705187}, {"type": "node", "id": 720546790, "lat": -37.9075015, "lon": 145.0704522}, {"type": "node", "id": 720546791, "lat": -37.9074862, "lon": 145.0703229}, {"type": "node", "id": 720546792, "lat": -37.9074488, "lon": 145.0702825}, {"type": "node", "id": 720546793, "lat": -37.9074171, "lon": 145.0701075}, {"type": "node", "id": 720546794, "lat": -37.9073713, "lon": 145.0701043}, {"type": "node", "id": 726076025, "lat": -37.883834, "lon": 145.000658, "tags": {"amenity": "cinema", "name": "Classic Cinema Elsternwick"}}, {"type": "node", "id": 726966377, "lat": -37.809886, "lon": 144.971151, "tags": {"atm": "yes", "branch": "X press", "brand": "IGA", "brand:wikidata": "Q5970945", "brand:wikipedia": "en:IGA (Australian supermarket group)", "name": "IGA", "shop": "supermarket"}}, {"type": "node", "id": 726967748, "lat": -37.810488, "lon": 144.97004, "tags": {"addr:housenumber": "222", "addr:street": "Exhibition Street", "brand": "Woolworths Metro", "brand:wikidata": "Q111772555", "name": "Woolworths Metro", "opening_hours": "Mo-Fr 07:00-22:00; Sa 08:00-22:00; Su 08:00-21:00", "operator": "Woolworths Group", "operator:wikidata": "Q607272", "shop": "supermarket", "wheelchair": "yes"}}, {"type": "node", "id": 730052915, "lat": -37.5762786, "lon": 144.7291341}, {"type": "node", "id": 730052931, "lat": -37.5762515, "lon": 144.7290726}, {"type": "node", "id": 730052944, "lat": -37.5762696, "lon": 144.7289894}, {"type": "node", "id": 730052957, "lat": -37.5763929, "lon": 144.7288995}, {"type": "node", "id": 730314295, "lat": -37.8342473, "lon": 144.9823056, "tags": {"addr:housenumber": "187-189", "addr:street": "Domain Road", "brand": "7-Eleven", "brand:wikidata": "Q259340", "brand:wikipedia": "en:7-Eleven", "name": "7-Eleven", "phone": "+61 3 9867 4182", "shop": "convenience"}}, {"type": "node", "id": 737245243, "lat": -37.9158261, "lon": 144.9952162, "tags": {"amenity": "loading_dock"}}, {"type": "node", "id": 738190299, "lat": -37.9148805, "lon": 144.9959361}, {"type": "node", "id": 740251693, "lat": -37.912803, "lon": 144.9917035}, {"type": "node", "id": 740251695, "lat": -37.912758, "lon": 144.9919999}, {"type": "node", "id": 740251698, "lat": -37.9127807, "lon": 144.9916833}, {"type": "node", "id": 740251716, "lat": -37.9127314, "lon": 144.991812}, {"type": "node", "id": 740251717, "lat": -37.9127153, "lon": 144.9916961}, {"type": "node", "id": 740299526, "lat": -37.9138517, "lon": 144.9936461}, {"type": "node", "id": 740299528, "lat": -37.913797, "lon": 144.9937243}, {"type": "node", "id": 740327247, "lat": -37.9149473, "lon": 144.9958621}, {"type": "node", "id": 740327249, "lat": -37.91494, "lon": 144.9958537}, {"type": "node", "id": 740327255, "lat": -37.9146142, "lon": 144.9957925}, {"type": "node", "id": 740327256, "lat": -37.91459, "lon": 144.995828}, {"type": "node", "id": 747047587, "lat": -37.913326, "lon": 144.9927645, "tags": {"addr:city": "Brighton", "addr:housenumber": "26", "addr:street": "Church Street", "brand": "Coles", "brand:wikidata": "Q1108172", "brand:wikipedia": "en:Coles Supermarkets", "full_name": "Coles Brighton", "name": "Coles", "shop": "supermarket", "website": "https://www.coles.com.au/"}}, {"type": "node", "id": 757839996, "lat": -37.7005116, "lon": 144.873907}, {"type": "node", "id": 757840019, "lat": -37.7006825, "lon": 144.8739464}, {"type": "node", "id": 757840022, "lat": -37.7006746, "lon": 144.8738773}, {"type": "node", "id": 757840024, "lat": -37.7006682, "lon": 144.873949}, {"type": "node", "id": 757840074, "lat": -37.7005195, "lon": 144.8739761}, {"type": "node", "id": 761987686, "lat": -37.8890987, "lon": 145.0412515}, {"type": "node", "id": 762865673, "lat": -37.8891432, "lon": 145.0448139, "tags": {"brand": "7-Eleven", "brand:wikidata": "Q259340", "brand:wikipedia": "en:7-Eleven", "name": "7-Eleven", "opening_hours": "24/7", "shop": "convenience", "source": "nearmap,survey"}}, {"type": "node", "id": 769474175, "lat": -37.650551, "lon": 145.0691768, "tags": {"brand": "ALDI", "brand:wikidata": "Q41171672", "brand:wikipedia": "en:Aldi", "name": "ALDI", "shop": "supermarket", "website": "https://www.aldi.com.au/"}}, {"type": "node", "id": 773539537, "lat": -37.7395264, "lon": 145.0311569, "tags": {"amenity": "cinema", "brand": "Hoyts", "brand:wikidata": "Q5922976", "brand:wikipedia": "en:Hoyts", "layer": "2", "name": "Hoyts", "website": "https://www.hoyts.com.au/", "wikidata": "Q47001082"}}, {"type": "node", "id": 775942818, "lat": -37.693886, "lon": 144.8818015, "tags": {"name": "Pura Milk", "shop": "convenience"}}, {"type": "node", "id": 776647098, "lat": -37.7837216, "lon": 144.9836371, "tags": {"addr:housenumber": "230", "addr:street": "St Georges Road", "name": "Wild Things Food", "opening_hours": "Mo-Su 08:30-19:00", "phone": "+61 3 9489 9962", "shop": "convenience", "website": "https://www.wildthingsfood.com.au/"}}, {"type": "node", "id": 781006884, "lat": -37.80314, "lon": 144.9490587, "tags": {"brand": "Foodworks", "brand:wikidata": "Q5465579", "brand:wikipedia": "en:FoodWorks", "check_date": "2024-03-26", "name": "Foodworks", "opening_hours": "Mo-Sa 07:30-21:00; Su 09:00-21:00", "shop": "supermarket", "source": "nearmap"}}, {"type": "node", "id": 802089471, "lat": -37.8198464, "lon": 145.009407, "tags": {"addr:housenumber": "516", "addr:postcode": "3121", "addr:street": "Bridge Road", "brand": "IGA", "brand:wikidata": "Q5970945", "brand:wikipedia": "en:IGA (Australian supermarket group)", "name": "IGA", "shop": "supermarket", "website": "http://www.iga.net.au/"}}, {"type": "node", "id": 811037209, "lat": -37.7886163, "lon": 144.9722365, "tags": {"addr:housenumber": "374", "addr:street": "Rathdowne Street", "name": "Rathdowne Village Grocery Store", "phone": "+61 3 9347 5973", "shop": "convenience"}}, {"type": "node", "id": 811304756, "lat": -37.6103146, "lon": 144.9333362}, {"type": "node", "id": 821363946, "lat": -37.5931102, "lon": 144.927445}, {"type": "node", "id": 821370703, "lat": -37.6838522, "lon": 144.5826013, "tags": {"name": "Morgan's IGA", "shop": "supermarket"}}, {"type": "node", "id": 821370704, "lat": -37.6841682, "lon": 144.5785968, "tags": {"brand": "Foodworks", "brand:wikidata": "Q5465579", "brand:wikipedia": "en:FoodWorks", "name": "Foodworks", "shop": "supermarket"}}, {"type": "node", "id": 832563928, "lat": -37.8815939, "lon": 144.7032684, "tags": {"addr:housenumber": "50", "addr:street": "Old Geelong Road", "brand": "Coles", "brand:wikidata": "Q1108172", "brand:wikipedia": "en:Coles Supermarkets", "name": "Coles", "shop": "supermarket"}}, {"type": "node", "id": 835998619, "lat": -37.809602, "lon": 144.9954593, "tags": {"addr:housenumber": "313-325", "addr:street": "Victoria Street", "brand": "ALDI", "brand:wikidata": "Q41171672", "brand:wikipedia": "en:Aldi", "check_date:opening_hours": "2023-05-05", "full_name": "ALDI Abbotsford", "level": "0", "name": "ALDI", "opening_hours": "Mo-Su 08:30-20:00", "shop": "supermarket", "website": "https://store.aldi.com.au/vic/abbotsford/313-325-victoria-street", "wheelchair": "yes"}}, {"type": "node", "id": 836083881, "lat": -37.8576259, "lon": 144.8974163, "tags": {"addr:housenumber": "29", "addr:street": "Douglas Parade", "brand": "Coles", "brand:wikidata": "Q1108172", "brand:wikipedia": "en:Coles Supermarkets", "name": "Coles", "shop": "supermarket", "website": "https://www.coles.com.au/"}}, {"type": "node", "id": 847533152, "lat": -37.8211694, "lon": 144.9685371, "tags": {"amenity": "theatre", "name": "State Theatre", "wheelchair": "limited", "wikidata": "Q3527609"}}, {"type": "node", "id": 847533245, "lat": -37.8198549, "lon": 144.9680601}, {"type": "node", "id": 847533323, "lat": -37.8202582, "lon": 144.9676615}, {"type": "node", "id": 847533327, "lat": -37.8201217, "lon": 144.9676248}, {"type": "node", "id": 857962910, "lat": -37.8095858, "lon": 144.9963729, "tags": {"addr:housenumber": "2-8", "addr:street": "Nicholson Street", "name": "Minh Phat Asian Supermarket", "phone": "+61 3 9429 4028", "shop": "supermarket"}}, {"type": "node", "id": 867869431, "lat": -37.8600747, "lon": 145.0293198}, {"type": "node", "id": 869955187, "lat": -37.7840992, "lon": 144.8924574}, {"type": "node", "id": 869955193, "lat": -37.7843024, "lon": 144.892507}, {"type": "node", "id": 869955207, "lat": -37.7840529, "lon": 144.8920873}, {"type": "node", "id": 869955218, "lat": -37.7841549, "lon": 144.8924463}, {"type": "node", "id": 869955225, "lat": -37.784483, "lon": 144.8919408}, {"type": "node", "id": 869955234, "lat": -37.7842918, "lon": 144.8924218}, {"type": "node", "id": 869955255, "lat": -37.7841659, "lon": 144.8925343}, {"type": "node", "id": 869955258, "lat": -37.784537, "lon": 144.8923726}, {"type": "node", "id": 869967587, "lat": -37.7833082, "lon": 144.887425, "tags": {"shop": "convenience"}}, {"type": "node", "id": 876996767, "lat": -37.5793116, "lon": 144.7275956}, {"type": "node", "id": 876996769, "lat": -37.5798203, "lon": 144.7272402}, {"type": "node", "id": 876996774, "lat": -37.5797152, "lon": 144.7270008}, {"type": "node", "id": 876996778, "lat": -37.5796912, "lon": 144.7270176}, {"type": "node", "id": 876996781, "lat": -37.5796375, "lon": 144.7268953}, {"type": "node", "id": 876996788, "lat": -37.579156, "lon": 144.7272319}, {"type": "node", "id": 876996791, "lat": -37.5791488, "lon": 144.7272933}, {"type": "node", "id": 877000694, "lat": -37.5804222, "lon": 144.7261969}, {"type": "node", "id": 877000696, "lat": -37.5806369, "lon": 144.726044}, {"type": "node", "id": 877000699, "lat": -37.5804626, "lon": 144.7256765}, {"type": "node", "id": 877000701, "lat": -37.5802713, "lon": 144.7258106}, {"type": "node", "id": 877000704, "lat": -37.5802564, "lon": 144.725867}, {"type": "node", "id": 877001968, "lat": -37.5807134, "lon": 144.7256336}, {"type": "node", "id": 877001971, "lat": -37.5808474, "lon": 144.725883}, {"type": "node", "id": 877001973, "lat": -37.5807836, "lon": 144.7259286}, {"type": "node", "id": 877001975, "lat": -37.5806901, "lon": 144.7257436}, {"type": "node", "id": 877001976, "lat": -37.5805816, "lon": 144.7257033}, {"type": "node", "id": 877001978, "lat": -37.5806135, "lon": 144.7255719}, {"type": "node", "id": 877003125, "lat": -37.5786175, "lon": 144.7281012}, {"type": "node", "id": 877003127, "lat": -37.5783051, "lon": 144.7274065}, {"type": "node", "id": 877003128, "lat": -37.5778863, "lon": 144.7277016}, {"type": "node", "id": 877003129, "lat": -37.5780266, "lon": 144.7280047}, {"type": "node", "id": 877003143, "lat": -37.5780776, "lon": 144.7281415}, {"type": "node", "id": 877003149, "lat": -37.5781988, "lon": 144.7283936}, {"type": "node", "id": 877836336, "lat": -37.5811826, "lon": 144.7145268, "tags": {"name": "Lucky 7", "shop": "supermarket"}}, {"type": "node", "id": 879573514, "lat": -37.8992104, "lon": 144.662848, "tags": {"brand": "Woolworths", "brand:wikidata": "Q3249145", "brand:wikipedia": "en:Woolworths Supermarkets", "name": "Woolworths", "shop": "supermarket", "website": "https://www.woolworths.com.au/"}}, {"type": "node", "id": 881751151, "lat": -37.6875423, "lon": 144.8849079, "tags": {"addr:housenumber": "34", "addr:postcode": "3043", "addr:state": "VIC", "addr:street": "Gladstone Park Drive", "addr:suburb": "Gladstone Park", "brand": "Woolworths", "brand:wikidata": "Q3249145", "brand:wikipedia": "en:Woolworths Supermarkets", "name": "Woolworths", "opening_hours": "Mo-Su 07:00-22:00", "operator": "Woolworths Group", "operator:wikidata": "Q607272", "phone": "+61 3 8347 6581", "shop": "supermarket", "website": "https://www.woolworths.com.au/"}}, {"type": "node", "id": 885893578, "lat": -37.8691835, "lon": 144.8301799}, {"type": "node", "id": 886609472, "lat": -37.7224253, "lon": 145.0498801}, {"type": "node", "id": 886609552, "lat": -37.7226554, "lon": 145.0499092}, {"type": "node", "id": 886609575, "lat": -37.7224259, "lon": 145.0501014}, {"type": "node", "id": 886609658, "lat": -37.7224801, "lon": 145.0503164}, {"type": "node", "id": 886609762, "lat": -37.7226473, "lon": 145.0501849}, {"type": "node", "id": 886609868, "lat": -37.7223648, "lon": 145.0500325}, {"type": "node", "id": 886609960, "lat": -37.7224991, "lon": 145.0501052}, {"type": "node", "id": 886610071, "lat": -37.7225655, "lon": 145.0502961}, {"type": "node", "id": 886610127, "lat": -37.722617, "lon": 145.0498388}, {"type": "node", "id": 886610155, "lat": -37.7226703, "lon": 145.0500425}, {"type": "node", "id": 886610305, "lat": -37.7224986, "lon": 145.0499728}, {"type": "node", "id": 894922271, "lat": -37.5821232, "lon": 144.7288356, "tags": {"brand": "IGA", "brand:wikidata": "Q3146662", "brand:wikipedia": "en:IGA (supermarkets)", "name": "IGA", "shop": "supermarket"}}, {"type": "node", "id": 915085888, "lat": -37.6543378, "lon": 145.0188275, "tags": {"addr:housenumber": "571-583", "addr:street": "High Street", "brand": "Coles", "brand:wikidata": "Q1108172", "brand:wikipedia": "en:Coles Supermarkets", "name": "Coles", "shop": "supermarket", "website": "https://www.coles.com.au/", "wheelchair": "yes"}}, {"type": "node", "id": 927445069, "lat": -37.85877, "lon": 145.001963, "tags": {"brand": "7-Eleven", "brand:wikidata": "Q259340", "name": "7-Eleven", "shop": "convenience"}}, {"type": "node", "id": 932432768, "lat": -37.8679128, "lon": 144.9919849, "tags": {"addr:housenumber": "54", "addr:street": "Camden Street", "brand": "Coles", "brand:wikidata": "Q1108172", "brand:wikipedia": "en:Coles Supermarkets", "name": "Coles", "operator": "Coles Group", "operator:wikidata": "Q1339055", "shop": "supermarket", "wheelchair": "yes"}}, {"type": "node", "id": 932432827, "lat": -37.868243, "lon": 144.991277, "tags": {"addr:housenumber": "220", "addr:street": "Carlisle Street", "brand": "Woolworths", "brand:wikidata": "Q3249145", "brand:wikipedia": "en:Woolworths Supermarkets", "name": "Woolworths", "operator": "Woolworths Group", "operator:wikidata": "Q607272", "phone": "+61 3 9223 5858", "shop": "supermarket", "website": "https://www.woolworths.com.au/", "wheelchair": "yes"}}, {"type": "node", "id": 937619908, "lat": -37.8735005, "lon": 144.990035, "tags": {"shop": "convenience"}}, {"type": "node", "id": 937619910, "lat": -37.8685227, "lon": 144.9926448, "tags": {"addr:housenumber": "260", "addr:street": "Carlisle Street", "name": "The Coffee Company", "phone": "+61 3 9534 6604", "shop": "convenience"}}, {"type": "node", "id": 937619914, "lat": -37.8728113, "lon": 144.9896542, "tags": {"addr:street": "Brighton Road", "name": "Newsagents", "shop": "convenience"}}, {"type": "node", "id": 939020309, "lat": -37.7673811, "lon": 145.0017674, "tags": {"addr:housenumber": "25", "addr:street": "Separation Street", "branch": "Northcote North", "brand": "Coles", "brand:wikidata": "Q1108172", "brand:wikipedia": "en:Coles Supermarkets", "name": "Coles", "operator": "Coles Group", "operator:wikidata": "Q1339055", "shop": "supermarket", "toilets:wheelchair": "no", "website": "https://www.coles.com.au/find-stores/coles/vic/northcote-627", "wheelchair": "yes"}}, {"type": "node", "id": 955912982, "lat": -37.779515, "lon": 144.8526801, "tags": {"name": "George's Milk Bar", "shop": "convenience"}}, {"type": "node", "id": 962492103, "lat": -37.8149228, "lon": 144.96028, "tags": {"name": "CT Mart", "operator": "CT Mart", "shop": "convenience", "wheelchair": "no"}}, {"type": "node", "id": 964641320, "lat": -37.8458418, "lon": 145.0452563, "tags": {"addr:housenumber": "766", "addr:street": "Toorak Road", "brand": "Coles", "brand:wikidata": "Q1108172", "brand:wikipedia": "en:Coles Supermarkets", "name": "Coles", "opening_hours": "Mo-Su 06:00-23:00", "operator": "Coles Group", "operator:wikidata": "Q1339055", "shop": "supermarket"}}, {"type": "node", "id": 968355650, "lat": -37.8074444, "lon": 144.9621938, "tags": {"addr:housenumber": "8", "addr:street": "Franklin Street", "addr:unit": "1", "brand": "ALDI", "brand:wikidata": "Q41171672", "brand:wikipedia": "en:Aldi", "check_date:opening_hours": "2023-05-05", "full_name": "ALDI Melbourne", "name": "ALDI", "opening_hours": "Mo-Su 08:30-20:00", "shop": "supermarket", "website": "https://store.aldi.com.au/vic/melbourne/501-swanston-st"}}, {"type": "node", "id": 974244034, "lat": -37.8096773, "lon": 144.9954578, "tags": {"brand": "Woolworths", "brand:wikidata": "Q3249145", "brand:wikipedia": "en:Woolworths Supermarkets", "full_name": "Woolworths Abbotsford", "level": "1", "name": "Woolworths", "opening_hours": "Mo-Su 7:00-22:00", "operator": "Woolworths Group", "operator:wikidata": "Q607272", "shop": "supermarket", "website": "https://www.woolworths.com.au/"}}, {"type": "node", "id": 988541765, "lat": -37.7192559, "lon": 144.8353747, "tags": {"check_date": "2024-06-23", "name": "Bakers Delight", "shop": "bakery"}}, {"type": "node", "id": 990668796, "lat": -37.8005569, "lon": 144.9841461, "tags": {"addr:housenumber": "288", "addr:postcode": "3066", "addr:state": "VIC", "addr:street": "Smith Street", "addr:suburb": "Collingwood", "name": "Falco", "opening_hours": "Mo-Su 08:00-15:00", "outdoor_seating": "yes", "shop": "bakery", "smoking": "outside", "website": "https://www.falcobakery.com"}}, {"type": "node", "id": 995573037, "lat": -37.7965805, "lon": 144.9893854, "tags": {"name": "Family Milk Bar", "shop": "convenience"}}, {"type": "node", "id": 997425250, "lat": -37.8045008, "lon": 144.9772645, "tags": {"addr:housenumber": "101", "addr:street": "Brunswick Street", "name": "Milk Bar", "opening_hours": "Mo-Sa 6:15-22:00; Su 7:30-22:00", "shop": "convenience"}}, {"type": "node", "id": 998805707, "lat": -37.7586241, "lon": 144.9449946}, {"type": "node", "id": 998807038, "lat": -37.7586429, "lon": 144.945157}, {"type": "node", "id": 1006177476, "lat": -37.801543, "lon": 144.9976399, "tags": {"addr:city": "Abbotsford", "addr:housenumber": "214", "addr:postcode": "3067", "addr:street": "Nicholson Street", "name": "Magpie Milk Bar", "shop": "convenience", "wheelchair": "no"}}, {"type": "node", "id": 1009829808, "lat": -37.8097374, "lon": 144.98563, "tags": {"atm": "yes", "brand": "IGA", "brand:wikidata": "Q5970945", "brand:wikipedia": "en:IGA (Australian supermarket group)", "name": "IGA", "opening_hours": "Su-Th 7:00-22:30; Fr-Sa 7:00-23:00", "shop": "supermarket", "wheelchair": "yes"}}, {"type": "node", "id": 1015598823, "lat": -37.8107177, "lon": 144.9640976, "tags": {"addr:city": "Melbourne", "addr:country": "AU", "addr:housenumber": "323", "addr:postcode": "3000", "addr:street": "Swanston Street", "brand": "EzyMart", "brand:wikidata": "Q117220554", "level": "0", "name": "EzyMart", "shop": "convenience", "toilets": "no", "wheelchair": "limited"}}, {"type": "node", "id": 1021355276, "lat": -37.8765871, "lon": 144.9965585, "tags": {"brand": "IGA", "brand:wikidata": "Q5970945", "brand:wikipedia": "en:IGA (Australian supermarket group)", "name": "IGA", "opening_hours": "Mo-Sa 08:00-21:00; Su 09:00-21:00", "shop": "supermarket", "wheelchair": "yes"}}, {"type": "node", "id": 1021383942, "lat": -37.8788807, "lon": 145.0132556, "tags": {"shop": "convenience"}}, {"type": "node", "id": 1021878617, "lat": -37.802264, "lon": 144.98906, "tags": {"name": "Corner Convenience Store", "shop": "convenience"}}, {"type": "node", "id": 1024258301, "lat": -37.8057789, "lon": 144.9954087, "tags": {"addr:housenumber": "110", "addr:street": "Charles Street", "office": "company", "phone": "+61 3 9419 6417", "shop": "convenience", "source": "Yahoo"}}, {"type": "node", "id": 1036697535, "lat": -37.6987654, "lon": 144.7968406}, {"type": "node", "id": 1036697540, "lat": -37.6988173, "lon": 144.7969456}, {"type": "node", "id": 1036697542, "lat": -37.6989164, "lon": 144.7970656}, {"type": "node", "id": 1036697544, "lat": -37.6987752, "lon": 144.7967439}, {"type": "node", "id": 1036697547, "lat": -37.6986941, "lon": 144.796808}, {"type": "node", "id": 1036697553, "lat": -37.6988459, "lon": 144.796923}, {"type": "node", "id": 1036697555, "lat": -37.6987284, "lon": 144.7970075}, {"type": "node", "id": 1036697560, "lat": -37.6988019, "lon": 144.7971561}, {"type": "node", "id": 1036697565, "lat": -37.6988068, "lon": 144.7968079}, {"type": "node", "id": 1055739776, "lat": -37.8389261, "lon": 144.9918965, "tags": {"name": "Brumbys", "shop": "bakery"}}, {"type": "node", "id": 1055795509, "lat": -37.8382542, "lon": 144.9870457, "tags": {"addr:city": "South Yarra", "addr:housenumber": "15", "addr:postcode": "3141", "addr:street": "Toorak Road", "cuisine": "french", "name": "French Fantasies", "shop": "bakery", "wheelchair": "yes"}}, {"type": "node", "id": 1060600610, "lat": -37.812846, "lon": 144.96725, "tags": {"brand": "Breadtop", "brand:wikidata": "Q4959217", "brand:wikipedia": "en:Breadtop", "building": "retail", "cuisine": "chinese", "name": "Breadtop", "opening_hours": "Mo-Su 09:00-20:00", "shop": "bakery", "website": "https://www.breadtop.com.au/", "wheelchair": "no"}}, {"type": "node", "id": 1064761367, "lat": -37.7985006, "lon": 144.9782841, "tags": {"addr:housenumber": "295", "addr:postcode": "3065", "addr:state": "VIC", "addr:street": "Brunswick Street", "addr:suburb": "Fitzroy", "name": "A1 Bakery", "shop": "bakery"}}, {"type": "node", "id": 1071936156, "lat": -37.8005727, "lon": 144.983832, "tags": {"addr:housenumber": "279", "addr:street": "Smith Street", "cuisine": "american", "name": "Hinoki Japanese Pantry", "opening_hours": "Tu-Th 10:00-18:00; Fr-Sa 10:00-19:00; Su 10:00-16:00", "phone": "+61 3 9417 4531", "shop": "supermarket"}}, {"type": "node", "id": 1071937924, "lat": -37.800652, "lon": 144.983823, "tags": {"addr:housenumber": "277", "addr:street": "Smith Street", "name": "Organic Wholefoods", "opening_hours": "Mo-Fr 9:00-19:00; Sa 9:00-18:00; Su 11:00-17:00", "organic": "only", "phone": "+61 3 9419 5347", "shop": "supermarket", "website": "https://www.wholefoods.com.au/", "wheelchair": "no"}}, {"type": "node", "id": 1072072827, "lat": -37.7998871, "lon": 144.9922356, "tags": {"brand": "Foodworks", "brand:wikidata": "Q5465579", "brand:wikipedia": "en:FoodWorks", "name": "Foodworks", "shop": "supermarket", "wheelchair": "yes"}}, {"type": "node", "id": 1072618063, "lat": -37.7943152, "lon": 144.9298631, "tags": {"addr:housenumber": "484", "addr:street": "Macaulay Road", "brand": "Foodworks", "brand:wikidata": "Q5465579", "brand:wikipedia": "en:FoodWorks", "check_date:opening_hours": "2021-07-19", "name": "Foodworks", "opening_hours": "Mo-Sa 08:00-20:30; Su 08:30-19:30", "phone": "+61 3 9376 6039", "shop": "supermarket", "website": "https://foodworks.com.au/stores/kensington-macaulay", "wheelchair": "yes"}}, {"type": "node", "id": 1072618076, "lat": -37.7943355, "lon": 144.930111, "tags": {"addr:housenumber": "476", "addr:street": "Macaulay Road", "name": "Kenz", "opening_hours": "Mo-Fr 08:30-21:00; Sa 10:00-17:00; Su 10:00-16:00", "shop": "convenience"}}, {"type": "node", "id": 1072618110, "lat": -37.7942684, "lon": 144.929417, "tags": {"check_date:opening_hours": "2024-04-18", "name": "Matildas", "opening_hours:signed": "no", "shop": "bakery"}}, {"type": "node", "id": 1080065113, "lat": -37.8114684, "lon": 144.9644899, "tags": {"atm": "yes", "brand": "7-Eleven", "brand:wikidata": "Q259340", "brand:wikipedia": "en:7-Eleven", "check_date": "2023-08-25", "name": "7-Eleven", "opening_hours": "24/7", "shop": "convenience", "website": "https://www.7eleven.com.au/", "wheelchair": "no"}}, {"type": "node", "id": 1080069665, "lat": -37.8115954, "lon": 144.9640779, "tags": {"name": "Best Asian Grocery Store", "shop": "convenience", "wheelchair": "no"}}, {"type": "node", "id": 1080087948, "lat": -37.7645234, "lon": 144.9219203, "tags": {"addr:housenumber": "20", "addr:street": "Homer Street", "brand": "Coles", "brand:wikidata": "Q1108172", "brand:wikipedia": "en:Coles Supermarkets", "name": "Coles", "operator": "Coles Group", "operator:wikidata": "Q1339055", "shop": "supermarket", "website": "https://www.coles.com.au/", "wheelchair": "yes"}}, {"type": "node", "id": 1080144145, "lat": -37.7655943, "lon": 144.9245327}, {"type": "node", "id": 1080144654, "lat": -37.765379, "lon": 144.925079}, {"type": "node", "id": 1080144845, "lat": -37.7659228, "lon": 144.9247386}, {"type": "node", "id": 1104147041, "lat": -37.8024675, "lon": 144.9838273, "tags": {"addr:housenumber": "220", "addr:street": "Smith Street", "name": "N. Lee Bakery", "opening_hours": "Mo-Fr 5:30-17:30; Sa-Su 6:00-17:00", "phone": "+61 3 9419 9732", "shop": "bakery", "wheelchair": "yes"}}, {"type": "node", "id": 1104189986, "lat": -37.8028064, "lon": 144.9837684, "tags": {"addr:housenumber": "202", "addr:street": "Smith Street", "brand": "The Source Bulk Foods", "brand:wikidata": "Q113771168", "name": "The Source Bulk Foods", "organic": "only", "phone": "+61 3 9417 2777", "shop": "supermarket", "wheelchair": "yes", "zero_waste": "only"}}, {"type": "node", "id": 1106905872, "lat": -37.7822926, "lon": 144.9166928}, {"type": "node", "id": 1106905876, "lat": -37.7822808, "lon": 144.9165844}, {"type": "node", "id": 1106905882, "lat": -37.7821124, "lon": 144.9166137}, {"type": "node", "id": 1106905883, "lat": -37.7821215, "lon": 144.9166973}, {"type": "node", "id": 1121118008, "lat": -37.7701721, "lon": 145.0416219, "tags": {"brand": "Woolworths", "brand:wikidata": "Q3249145", "brand:wikipedia": "en:Woolworths Supermarkets", "check_date": "2023-04-20", "name": "Woolworths", "operator": "Woolworths Group", "operator:wikidata": "Q607272", "shop": "supermarket", "website": "https://www.woolworths.com.au/"}}, {"type": "node", "id": 1124348691, "lat": -37.823041, "lon": 145.038054, "tags": {"name": "Made In Korea", "shop": "convenience"}}, {"type": "node", "id": 1131853789, "lat": -37.8230601, "lon": 145.0698474, "tags": {"brand": "7-Eleven", "brand:wikidata": "Q259340", "brand:wikipedia": "en:7-Eleven", "name": "7-Eleven", "shop": "convenience"}}, {"type": "node", "id": 1167253686, "lat": -37.8757785, "lon": 145.0472248, "tags": {"description": "Milk Bar", "shop": "convenience"}}, {"type": "node", "id": 1226266915, "lat": -37.857847, "lon": 144.9917422}, {"type": "node", "id": 1226266979, "lat": -37.858117, "lon": 144.9916242}, {"type": "node", "id": 1226267006, "lat": -37.8579222, "lon": 144.9916591}, {"type": "node", "id": 1226267026, "lat": -37.8578396, "lon": 144.9916725}, {"type": "node", "id": 1226267050, "lat": -37.8578142, "lon": 144.9917489}, {"type": "node", "id": 1226267058, "lat": -37.8579222, "lon": 144.9916457}, {"type": "node", "id": 1226267171, "lat": -37.8581668, "lon": 144.9920721}, {"type": "node", "id": 1226267184, "lat": -37.857864, "lon": 144.9921216}, {"type": "node", "id": 1226267211, "lat": -37.8580619, "lon": 144.9916363}, {"type": "node", "id": 1226267273, "lat": -37.8580598, "lon": 144.9916202}, {"type": "node", "id": 1237251095, "lat": -37.7149789, "lon": 144.88468, "tags": {"addr:housenumber": "29-35", "addr:street": "Louis Street", "brand": "Coles", "brand:wikidata": "Q1108172", "brand:wikipedia": "en:Coles Supermarkets", "name": "Coles", "shop": "supermarket", "toilets:wheelchair": "yes", "website": "https://www.coles.com.au/", "wheelchair": "yes"}}, {"type": "node", "id": 1237251100, "lat": -37.7146375, "lon": 144.887236, "tags": {"brand": "Woolworths", "brand:wikidata": "Q3249145", "brand:wikipedia": "en:Woolworths Supermarkets", "name": "Woolworths", "shop": "supermarket", "website": "https://www.woolworths.com.au/"}}, {"type": "node", "id": 1237251102, "lat": -37.7142366, "lon": 144.888183, "tags": {"amenity": "cinema", "brand": "Village", "brand:wikidata": "Q7930631", "brand:wikipedia": "en:Village Cinemas", "name": "Village Cinemas", "website": "https://www.villagecinemas.com.au/", "wikidata": "Q47000791"}}, {"type": "node", "id": 1244279701, "lat": -37.6866137, "lon": 144.5669805}, {"type": "node", "id": 1244279703, "lat": -37.6867598, "lon": 144.5669519}, {"type": "node", "id": 1244279707, "lat": -37.6867805, "lon": 144.5671211}, {"type": "node", "id": 1244279708, "lat": -37.6866345, "lon": 144.5671497}, {"type": "node", "id": 1249617879, "lat": -37.9036986, "lon": 145.0407706, "tags": {"addr:housenumber": "1", "addr:postcode": "3204", "addr:state": "VIC", "addr:street": "Newhome Grove", "addr:suburb": "Ormond", "brand": "IGA", "brand:wikidata": "Q5970945", "brand:wikipedia": "en:IGA (supermarkets)", "name": "IGA", "shop": "supermarket", "website": "https://www.iga.com.au/"}}, {"type": "node", "id": 1254871413, "lat": -37.7561241, "lon": 145.0695756}, {"type": "node", "id": 1254871420, "lat": -37.7566019, "lon": 145.0652645}, {"type": "node", "id": 1254871431, "lat": -37.7551197, "lon": 145.0686225}, {"type": "node", "id": 1254871437, "lat": -37.756269, "lon": 145.0658264}, {"type": "node", "id": 1254871442, "lat": -37.7554533, "lon": 145.0690953}, {"type": "node", "id": 1254871460, "lat": -37.7561994, "lon": 145.0652532}, {"type": "node", "id": 1254871461, "lat": -37.7567202, "lon": 145.0657882}, {"type": "node", "id": 1260379606, "lat": -37.74352, "lon": 145.0646217, "tags": {"addr:housenumber": "90", "addr:postcode": "3084", "addr:street": "Lower Plenty Road", "brand": "IGA", "brand:wikidata": "Q5970945", "name": "IGA", "shop": "supermarket", "website": "https://www.iga.com.au/"}}, {"type": "node", "id": 1264365500, "lat": -37.7803951, "lon": 144.8319234, "tags": {"brand": "Woolworths", "brand:wikidata": "Q3249145", "brand:wikipedia": "en:Woolworths Supermarkets", "name": "Woolworths", "shop": "supermarket", "website": "https://www.woolworths.com.au/"}}, {"type": "node", "id": 1271728963, "lat": -37.8757512, "lon": 144.6145175, "tags": {"addr:housenumber": "8", "addr:street": "Manor Lakes Boulevard", "brand": "Coles", "brand:wikidata": "Q1108172", "brand:wikipedia": "en:Coles Supermarkets", "name": "Coles", "shop": "supermarket", "website": "https://www.coles.com.au/"}}, {"type": "node", "id": 1271732654, "lat": -37.7630515, "lon": 144.9635597}, {"type": "node", "id": 1271841790, "lat": -37.7388165, "lon": 145.0280461}, {"type": "node", "id": 1271841792, "lat": -37.7395002, "lon": 145.0285267}, {"type": "node", "id": 1271841795, "lat": -37.7380355, "lon": 145.0287828}, {"type": "node", "id": 1271841807, "lat": -37.7385868, "lon": 145.0280884}, {"type": "node", "id": 1271841811, "lat": -37.7388851, "lon": 145.0286441}, {"type": "node", "id": 1276628561, "lat": -37.7658132, "lon": 144.9246714, "tags": {"entrance": "main"}}, {"type": "node", "id": 1277988751, "lat": -37.8141974, "lon": 145.0119206}, {"type": "node", "id": 1277988758, "lat": -37.8142999, "lon": 145.0117593}, {"type": "node", "id": 1277988760, "lat": -37.8135769, "lon": 145.0111947}, {"type": "node", "id": 1277988768, "lat": -37.8142642, "lon": 145.0118036}, {"type": "node", "id": 1277988774, "lat": -37.8142303, "lon": 145.0111087}, {"type": "node", "id": 1277988780, "lat": -37.8140577, "lon": 145.0111237}, {"type": "node", "id": 1277988785, "lat": -37.8136273, "lon": 145.0119313}, {"type": "node", "id": 1277988791, "lat": -37.8137094, "lon": 145.0120283}, {"type": "node", "id": 1278126817, "lat": -37.7518375, "lon": 144.7756103, "tags": {"addr:housenumber": "28-72", "addr:street": "Neale Road", "brand": "Coles", "brand:wikidata": "Q1108172", "brand:wikipedia": "en:Coles Supermarkets", "name": "Coles", "shop": "supermarket", "website": "https://www.coles.com.au/"}}, {"type": "node", "id": 1278126819, "lat": -37.7508329, "lon": 144.7734061, "tags": {"brand": "Woolworths", "brand:wikidata": "Q3249145", "brand:wikipedia": "en:Woolworths Supermarkets", "name": "Woolworths", "shop": "supermarket", "website": "https://www.woolworths.com.au/"}}, {"type": "node", "id": 1278129196, "lat": -37.7323759, "lon": 144.7425236, "tags": {"addr:housenumber": "29-35", "addr:postcode": "3023", "addr:state": "VIC", "addr:street": "Lake Street", "addr:suburb": "Caroline Springs", "addr:unit": "M1", "brand": "Coles", "brand:wikidata": "Q1108172", "brand:wikipedia": "en:Coles Supermarkets", "contact:facebook": "https://www.facebook.com/coles/", "contact:instagram": "colessupermarkets", "name": "Coles", "opening_hours": "Mo-Su 07:00-00:00; Dec 25 off; Apr 25 07:00-13:00", "operator": "Coles Group", "operator:wikidata": "Q1339055", "phone": "+61 3 8361 8955", "shop": "supermarket", "website": "https://www.coles.com.au"}}, {"type": "node", "id": 1278129202, "lat": -37.7315698, "lon": 144.7427972, "tags": {"addr:housenumber": "29-35", "addr:postcode": "3023", "addr:state": "VIC", "addr:street": "Lake Street", "addr:suburb": "Caroline Springs", "brand": "ALDI", "brand:wikidata": "Q125054", "brand:wikipedia": "en:Aldi", "check_date:opening_hours": "2023-05-05", "contact:facebook": "ALDI.Australia", "contact:instagram": "aldiaustralia", "contact:twitter": "ALDIAustralia", "full_name": "ALDI Caroline Springs", "name": "ALDI", "opening_hours": "Mo-Su 08:30-20:00", "phone:AU": "13 25 34", "shop": "supermarket", "website": "https://store.aldi.com.au/vic/caroline-springs/29-35-lake-street", "wheelchair": "yes"}}, {"type": "node", "id": 1278982103, "lat": -37.7560586, "lon": 145.0689921}, {"type": "node", "id": 1278982108, "lat": -37.755396, "lon": 145.0685682}, {"type": "node", "id": 1278982109, "lat": -37.7555182, "lon": 145.0696821}, {"type": "node", "id": 1278982111, "lat": -37.7554095, "lon": 145.0686893}, {"type": "node", "id": 1278982113, "lat": -37.7557715, "lon": 145.0690424}, {"type": "node", "id": 1278982115, "lat": -37.7551694, "lon": 145.0690311}, {"type": "node", "id": 1279106978, "lat": -37.7678461, "lon": 145.0414759}, {"type": "node", "id": 1279106982, "lat": -37.7683733, "lon": 145.0421261}, {"type": "node", "id": 1279106983, "lat": -37.7682076, "lon": 145.0416665}, {"type": "node", "id": 1279106985, "lat": -37.7682332, "lon": 145.0419229}, {"type": "node", "id": 1279106987, "lat": -37.7684628, "lon": 145.0419979}, {"type": "node", "id": 1279106989, "lat": -37.7684586, "lon": 145.0419529}, {"type": "node", "id": 1279106997, "lat": -37.7681798, "lon": 145.0414128}, {"type": "node", "id": 1279106998, "lat": -37.7683392, "lon": 145.0422098, "tags": {"entrance": "yes"}}, {"type": "node", "id": 1279107000, "lat": -37.7684522, "lon": 145.0418842}, {"type": "node", "id": 1279999348, "lat": -37.8132, "lon": 144.9601051, "tags": {"brand": "7-Eleven", "brand:wikidata": "Q259340", "brand:wikipedia": "en:7-Eleven", "name": "7-Eleven", "shop": "convenience", "website": "https://www.7eleven.com.au/", "wheelchair": "yes"}}, {"type": "node", "id": 1282403389, "lat": -37.8135447, "lon": 144.959816, "tags": {"amenity": "cafe", "brand": "The Cheesecake Shop", "brand:wikidata": "Q117717103", "cuisine": "cake", "name": "The Cheesecake Shop", "shop": "bakery", "website": "https://www.cheesecake.com.au/"}}, {"type": "node", "id": 1282403426, "lat": -37.8140244, "lon": 144.9605072, "tags": {"cuisine": "bakery", "name": "Kenny's", "shop": "bakery"}}, {"type": "node", "id": 1282403428, "lat": -37.8133355, "lon": 144.9597203, "tags": {"name": "Ho's Bakery", "shop": "bakery"}}, {"type": "node", "id": 1282664873, "lat": -37.6749254, "lon": 145.0357476, "tags": {"addr:housenumber": "22", "addr:street": "McKimmies Road", "brand": "Coles", "brand:wikidata": "Q1108172", "brand:wikipedia": "en:Coles Supermarkets", "name": "Coles", "shop": "supermarket", "website": "https://www.coles.com.au/"}}, {"type": "node", "id": 1287222173, "lat": -37.7974915, "lon": 144.9679128}, {"type": "node", "id": 1287222197, "lat": -37.7975903, "lon": 144.9678956}, {"type": "node", "id": 1287222234, "lat": -37.797506, "lon": 144.9680467}, {"type": "node", "id": 1287222263, "lat": -37.7976049, "lon": 144.9680295}, {"type": "node", "id": 1288650141, "lat": -37.7686793, "lon": 144.97235, "tags": {"addr:housenumber": "326-328", "addr:postcode": "3057", "addr:street": "Lygon Street", "brand": "IGA", "brand:wikidata": "Q5970945", "name": "IGA X-press", "opening_hours": "Mo-Fr 07:00-23:00; Sa-Su 08:00-23:00", "shop": "supermarket", "website": "https://www.iga.com.au/"}}, {"type": "node", "id": 1299221028, "lat": -37.8642774, "lon": 145.0503147, "tags": {"shop": "convenience"}}, {"type": "node", "id": 1299221048, "lat": -37.8654078, "lon": 145.050312, "tags": {"addr:housenumber": "144", "addr:street": "Burke Road", "name": "Central Park Milk Bar", "shop": "convenience"}}, {"type": "node", "id": 1309731901, "lat": -37.8874619, "lon": 145.056658}, {"type": "node", "id": 1309731902, "lat": -37.8874137, "lon": 145.0562567}, {"type": "node", "id": 1309731903, "lat": -37.8878957, "lon": 145.0561651}, {"type": "node", "id": 1309731904, "lat": -37.8879465, "lon": 145.0565713}, {"type": "node", "id": 1313757482, "lat": -37.7602711, "lon": 144.9499996, "tags": {"shop": "convenience"}}, {"type": "node", "id": 1315710890, "lat": -37.6668428, "lon": 144.5988888, "tags": {"shop": "convenience"}},