{"version": 0.6, "generator": "Overpass API 0.7.62.1 084b4234", "osm3s": {"timestamp_osm_base": "2024-09-11T11:04:44Z", "copyright": "The data included in this document is from www.openstreetmap.org. The data is made available under ODbL."}, "elements": [{"type": "node", "id": 32193447, "lat": -37.2773622, "lon": 144.7338613, "tags": {"name": "IGA", "shop": "supermarket"}}, {"type": "node", "id": 454357332, "lat": -37.4203522, "lon": 144.5620745, "tags": {"amenity": "theatre", "name": "Mountview Theatre"}}, {"type": "node", "id": 563701491, "lat": -37.4133779, "lon": 144.9783977, "tags": {"addr:housenumber": "69-79", "addr:street": "High Street", "brand": "Coles", "brand:wikidata": "Q1108172", "brand:wikipedia": "en:Coles Supermarkets", "full_name": "Coles Wallan", "name": "Coles", "operator": "Coles Group", "operator:wikidata": "Q1339055", "phone": "+61 3 5783 3233", "shop": "supermarket", "website": "https://www.coles.com.au/"}}, {"type": "node", "id": 563705087, "lat": -37.4113849, "lon": 144.9784229, "tags": {"brand": "Woolworths", "brand:wikidata": "Q3249145", "brand:wikipedia": "en:Woolworths Supermarkets", "full_name": "Woolworths Wallan", "name": "Woolworths", "shop": "supermarket", "website": "https://www.woolworths.com.au/"}}, {"type": "node", "id": 600611153, "lat": -37.4034711, "lon": 145.0174027, "tags": {"brand": "BP Shop", "brand:wikidata": "Q152057", "brand:wikipedia": "en:BP", "name": "BP Shop", "shop": "convenience", "website": "www.bp.com.au"}}, {"type": "node", "id": 703043044, "lat": -37.412943, "lon": 144.9790489}, {"type": "node", "id": 703043045, "lat": -37.4129127, "lon": 144.9789785}, {"type": "node", "id": 703043046, "lat": -37.4128215, "lon": 144.9789847}, {"type": "node", "id": 703043047, "lat": -37.4128225, "lon": 144.9790123}, {"type": "node", "id": 703043048, "lat": -37.4128003, "lon": 144.9790135}, {"type": "node", "id": 703043049, "lat": -37.4128018, "lon": 144.9790566}, {"type": "node", "id": 766201979, "lat": -37.4225683, "lon": 144.5635289}, {"type": "node", "id": 766201980, "lat": -37.4228921, "lon": 144.5635571}, {"type": "node", "id": 766201981, "lat": -37.4228868, "lon": 144.5636751}, {"type": "node", "id": 766201982, "lat": -37.4225609, "lon": 144.5636442}, {"type": "node", "id": 1180571729, "lat": -37.4616958, "lon": 144.6771922, "tags": {"shop": "convenience"}}, {"type": "node", "id": 1180571777, "lat": -37.463399, "lon": 144.6778788, "tags": {"shop": "supermarket"}}, {"type": "node", "id": 1556734420, "lat": -37.2872658, "lon": 144.9483691}, {"type": "node", "id": 1556734434, "lat": -37.2876255, "lon": 144.9484711}, {"type": "node", "id": 1556734445, "lat": -37.2872159, "lon": 144.9479145}, {"type": "node", "id": 1556734469, "lat": -37.2872792, "lon": 144.9483213}, {"type": "node", "id": 1556734525, "lat": -37.2871218, "lon": 144.9482479}, {"type": "node", "id": 1556734555, "lat": -37.2872173, "lon": 144.9483474}, {"type": "node", "id": 1556734603, "lat": -37.2871453, "lon": 144.947677}, {"type": "node", "id": 1556734628, "lat": -37.2872316, "lon": 144.9482969}, {"type": "node", "id": 1556734633, "lat": -37.2870936, "lon": 144.94786}, {"type": "node", "id": 1556734755, "lat": -37.2871569, "lon": 144.9481234}, {"type": "node", "id": 1556734767, "lat": -37.2877696, "lon": 144.9479599}, {"type": "node", "id": 1637380392, "lat": -37.2047187, "lon": 145.0459578, "tags": {"brand": "IGA", "brand:wikidata": "Q5970945", "name": "Broadford IGA", "shop": "supermarket"}}, {"type": "node", "id": 2047923119, "lat": -37.4860094, "lon": 144.5889963, "tags": {"brand": "IGA", "brand:wikidata": "Q5970945", "brand:wikipedia": "en:IGA (Australian supermarket group)", "name": "IGA", "shop": "supermarket", "website": "https://www.iga.com.au/"}}, {"type": "node", "id": 2047923121, "lat": -37.4851623, "lon": 144.5906378, "tags": {"addr:housenumber": "10-20", "addr:street": "Aitken Street", "brand": "Coles", "brand:wikidata": "Q1108172", "brand:wikipedia": "en:Coles Supermarkets", "name": "Coles", "operator": "Coles Group", "operator:wikidata": "Q1339055", "shop": "supermarket", "website": "https://www.coles.com.au/"}}, {"type": "node", "id": 2141142652, "lat": -37.4623663, "lon": 144.6767862, "tags": {"shop": "bakery"}}, {"type": "node", "id": 2338860196, "lat": -37.408536, "lon": 144.980172, "tags": {"name": "Top of the Town Bakehouse", "shop": "bakery"}}, {"type": "node", "id": 2865860905, "lat": -37.3115277, "lon": 144.5928692}, {"type": "node", "id": 2865860906, "lat": -37.3115121, "lon": 144.5928716}, {"type": "node", "id": 2865860907, "lat": -37.3115151, "lon": 144.5928534}, {"type": "node", "id": 2865860908, "lat": -37.3114195, "lon": 144.5928752}, {"type": "node", "id": 2865860909, "lat": -37.3114182, "lon": 144.5928534}, {"type": "node", "id": 2865860910, "lat": -37.3113598, "lon": 144.5928612}, {"type": "node", "id": 2865860911, "lat": -37.3113623, "lon": 144.5928877}, {"type": "node", "id": 2865860912, "lat": -37.3113325, "lon": 144.5928909}, {"type": "node", "id": 2865860913, "lat": -37.3113288, "lon": 144.5929424}, {"type": "node", "id": 2865860914, "lat": -37.3113474, "lon": 144.5929893}, {"type": "node", "id": 2865860915, "lat": -37.3115176, "lon": 144.592958}, {"type": "node", "id": 2865860916, "lat": -37.3115141, "lon": 144.5929444}, {"type": "node", "id": 2865860917, "lat": -37.3115292, "lon": 144.592942}, {"type": "node", "id": 3864095960, "lat": -37.4128419, "lon": 144.978983}, {"type": "node", "id": 4139698693, "lat": -37.4170308, "lon": 144.9782022}, {"type": "node", "id": 4139698704, "lat": -37.4172033, "lon": 144.9781888}, {"type": "node", "id": 4139698714, "lat": -37.4170584, "lon": 144.9784677}, {"type": "node", "id": 4139698716, "lat": -37.4172033, "lon": 144.9782505}, {"type": "node", "id": 4139698725, "lat": -37.4170329, "lon": 144.9784704}, {"type": "node", "id": 4441947119, "lat": -37.4824984, "lon": 144.5912743}, {"type": "node", "id": 4441947120, "lat": -37.4826368, "lon": 144.5913869}, {"type": "node", "id": 4441947127, "lat": -37.4826325, "lon": 144.5912555}, {"type": "node", "id": 4441947133, "lat": -37.4825112, "lon": 144.5914513}, {"type": "node", "id": 4441947134, "lat": -37.4826091, "lon": 144.5914433}, {"type": "node", "id": 5470214076, "lat": -37.4230963, "lon": 144.5640707}, {"type": "node", "id": 5470214077, "lat": -37.4231148, "lon": 144.5640545}, {"type": "node", "id": 5470214078, "lat": -37.4232081, "lon": 144.564136}, {"type": "node", "id": 5470214085, "lat": -37.4230933, "lon": 144.5641264}, {"type": "node", "id": 5470214086, "lat": -37.423212, "lon": 144.5640628}, {"type": "node", "id": 7234319048, "lat": -37.2878914, "lon": 144.9485908}, {"type": "node", "id": 7234319050, "lat": -37.2879657, "lon": 144.9483091}, {"type": "node", "id": 7234319051, "lat": -37.2880313, "lon": 144.9480764}, {"type": "node", "id": 9016840585, "lat": -37.2912991, "lon": 144.950365, "tags": {"addr:housenumber": "65", "addr:postcode": "3764", "addr:state": "VIC", "addr:street": "Sydney Street", "addr:suburb": "Kilmore", "name": "Kemps Bakery Kilmore", "shop": "bakery"}}, {"type": "node", "id": 9016840598, "lat": -37.2858316, "lon": 144.947924, "tags": {"brand": "Woolworths", "brand:wikidata": "Q3249145", "brand:wikipedia": "en:Woolworths Supermarkets", "name": "Woolworths", "operator": "Woolworths Group", "operator:wikidata": "Q607272", "shop": "supermarket"}}, {"type": "node", "id": 9279364943, "lat": -37.3479587, "lon": 144.7414332, "tags": {"brand": "IGA", "brand:wikidata": "Q5970945", "brand:wikipedia": "en:IGA (Australian supermarket group)", "name": "IGA", "shop": "supermarket"}}, {"type": "node", "id": 9279371839, "lat": -37.4860112, "lon": 144.5879091}, {"type": "node", "id": 9279371840, "lat": -37.4860449, "lon": 144.5881724}, {"type": "node", "id": 9279371841, "lat": -37.4861269, "lon": 144.5881558}, {"type": "node", "id": 9279371842, "lat": -37.4860933, "lon": 144.5878925}, {"type": "node", "id": 9378372322, "lat": -37.4631674, "lon": 144.6772993}, {"type": "node", "id": 9378372323, "lat": -37.4630728, "lon": 144.6773545}, {"type": "node", "id": 9378372324, "lat": -37.4631143, "lon": 144.6775985}, {"type": "node", "id": 9378372325, "lat": -37.4631881, "lon": 144.6776261}, {"type": "node", "id": 9378372326, "lat": -37.4632423, "lon": 144.6777075}, {"type": "node", "id": 9378372327, "lat": -37.4632354, "lon": 144.6777409}, {"type": "node", "id": 9378372328, "lat": -37.4632907, "lon": 144.6778135}, {"type": "node", "id": 9378372329, "lat": -37.4634521, "lon": 144.6775898}, {"type": "node", "id": 9378372330, "lat": -37.4632746, "lon": 144.6773821}, {"type": "node", "id": 9378372331, "lat": -37.4632308, "lon": 144.677385}, {"type": "node", "id": 9731283927, "lat": -37.3583061, "lon": 145.0265944, "tags": {"brand": "IGA", "brand:wikidata": "Q5970945", "name": "Wandong IGA", "shop": "supermarket"}}, {"type": "node", "id": 9731283929, "lat": -37.3587471, "lon": 145.0265922, "tags": {"name": "Kemps Bakery", "shop": "bakery"}}, {"type": "node", "id": 9908670348, "lat": -37.4129406, "lon": 144.9789783}, {"type": "way", "id": 56008236, "nodes": [703043044, 9908670348, 703043045, 3864095960, 703043046, 703043047, 703043048, 703043049, 703043044], "tags": {"brand": "EG Australia", "brand:wikidata": "Q5023980", "brand:wikipedia": "en:Caltex Woolworths", "building": "retail", "layer": "1", "name": "EG Australia", "shop": "convenience", "source": "nearmap", "website": "https://www.woolworthspetrol.com.au/"}}, {"type": "way", "id": 61351180, "nodes": [766201979, 766201980, 766201981, 766201982, 766201979], "tags": {"addr:city": "Macedon", "addr:country": "AU", "addr:housenumber": "20", "addr:postcode": "3440", "addr:state": "VIC", "addr:street": "Victoria Street", "building": "supermarket", "name": "Macedon IGA plus Liquor", "opening_hours": "Mo-Sa 08:00-19:00; Su 09:00-19:00", "shop": "supermarket"}}, {"type": "way", "id": 142234405, "nodes": [1556734525, 1556734628, 1556734555, 1556734420, 1556734469, 1556734434, 1556734767, 1556734603, 1556734633, 1556734445, 1556734755, 1556734525], "tags": {"addr:housenumber": "97", "addr:street": "Clarke Street", "brand": "Coles", "brand:wikidata": "Q1108172", "brand:wikipedia": "en:Coles Supermarkets", "building": "retail", "full_name": "Coles Kilmore", "name": "Coles", "shop": "supermarket"}}, {"type": "way", "id": 282644288, "nodes": [2865860905, 2865860906, 2865860907, 2865860908, 2865860909, 2865860910, 2865860911, 2865860912, 2865860913, 2865860914, 2865860915, 2865860916, 2865860917, 2865860905], "tags": {"addr:city": "Newham", "addr:housenumber": "2", "addr:postcode": "3442", "addr:street": "Dons Road", "building": "yes", "name": "Newham General Store", "shop": "convenience"}}, {"type": "way", "id": 412574013, "nodes": [4139698716, 4139698714, 4139698725, 4139698693, 4139698704, 4139698716], "tags": {"brand": "United", "brand:wikidata": "Q28224393", "brand:wikipedia": "en:United Petroleum", "building": "yes", "name": "United", "shop": "convenience", "website": "https://www.unitedpetroleum.com.au/"}}, {"type": "way", "id": 446990745, "nodes": [4441947119, 4441947133, 4441947134, 4441947120, 4441947127, 4441947119], "tags": {"building": "yes", "shop": "convenience"}}, {"type": "way", "id": 568603544, "nodes": [5470214077, 5470214076, 5470214085, 5470214078, 5470214086, 5470214077], "tags": {"addr:city": "Macedon", "addr:country": "AU", "addr:housenumber": "21", "addr:postcode": "3440", "addr:state": "VIC", "addr:street": "Victoria Street", "building": "commercial", "building:levels": "1", "name": "The Lazy Baker", "opening_hours": "Mo-Fr 07:00-17:30; Sa,Su 07:00-15:30", "shop": "bakery"}}, {"type": "way", "id": 775426748, "nodes": [1556734434, 7234319048, 7234319050, 7234319051, 1556734767, 1556734434], "tags": {"addr:housenumber": "97", "addr:street": "Sydney Street", "brand": "ALDI", "brand:wikidata": "Q125054", "brand:wikipedia": "en:Aldi", "building": "yes", "check_date:opening_hours": "2023-05-05", "full_name": "ALDI Kilmore", "name": "ALDI", "opening_hours": "Mo-Fr 08:30-20:00; Sa-Su 08:30-19:00", "shop": "supermarket", "website": "https://store.aldi.com.au/vic/kilmore/97-sydney-street", "wheelchair": "yes"}}, {"type": "way", "id": 1005739840, "nodes": [9279371839, 9279371840, 9279371841, 9279371842, 9279371839], "tags": {"building": "yes", "name": "Star Mart", "note": "New Caltex - not Ampol", "shop": "convenience"}}, {"type": "way", "id": 1016791916, "nodes": [9378372322, 9378372323, 9378372324, 9378372325, 9378372326, 9378372327, 9378372328, 9378372329, 9378372330, 9378372331, 9378372322], "tags": {"brand": "Foodworks", "brand:wikidata": "Q5465579", "brand:wikipedia": "en:FoodWorks", "building": "yes", "name": "Foodworks", "opening_hours": "Mo-Fr 08:30-20:00", "payment:cash": "yes", "payment:credit_cards": "yes", "payment:debit_cards": "yes", "payment:notes": "yes", "phone": "+61 3 5428 6060", "shop": "supermarket"}}]}