{"version": 0.6, "generator": "Overpass API 0.7.62.1 084b4234", "osm3s": {"timestamp_osm_base": "2024-09-11T11:03:45Z", "copyright": "The data included in this document is from www.openstreetmap.org. The data is made available under ODbL."}, "elements": [{"type": "node", "id": 279739124, "lat": -36.7508127, "lon": 145.5710032, "tags": {"addr:city": "Euroa", "addr:housenumber": "75", "addr:postcode": "3666", "addr:state": "VIC", "addr:street": "Binney Street", "addr:suburb": "Euroa", "branch": "Burtons SUPA IGA", "brand": "IGA", "brand:wikidata": "Q5970945", "name": "IGA", "opening_hours": "Mo-Fr 08:30-18:00; Sa 08:30-12:30; Su 09:00-13:00", "operator": "IGA", "phone": "+61 3 5795 2004", "shop": "supermarket", "website": "https://www.iga.com.au/"}}, {"type": "node", "id": 324236050, "lat": -37.0639078, "lon": 145.1002704, "tags": {"name": "The Foodary", "shop": "convenience"}}, {"type": "node", "id": 489359440, "lat": -37.029562, "lon": 145.1463322, "tags": {"brand": "IGA", "brand:wikidata": "Q5970945", "brand:wikipedia": "en:IGA (Australian supermarket group)", "name": "IGA", "shop": "supermarket"}}, {"type": "node", "id": 496817211, "lat": -36.907501, "lon": 145.2395872, "tags": {"name": "Ampol Foodary", "shop": "convenience"}}, {"type": "node", "id": 670124466, "lat": -36.7837648, "lon": 145.154029}, {"type": "node", "id": 670124467, "lat": -36.7837133, "lon": 145.1538708}, {"type": "node", "id": 670124468, "lat": -36.7836703, "lon": 145.1538909}, {"type": "node", "id": 670124469, "lat": -36.7836402, "lon": 145.153797}, {"type": "node", "id": 670124470, "lat": -36.7835865, "lon": 145.1538225}, {"type": "node", "id": 670124471, "lat": -36.7836692, "lon": 145.1540787}, {"type": "node", "id": 783619277, "lat": -37.0228277, "lon": 145.1354275}, {"type": "node", "id": 783619278, "lat": -37.0232733, "lon": 145.1353393}, {"type": "node", "id": 783619279, "lat": -37.0233968, "lon": 145.136328}, {"type": "node", "id": 783619280, "lat": -37.0231096, "lon": 145.1363851}, {"type": "node", "id": 783619281, "lat": -37.023121, "lon": 145.1364754}, {"type": "node", "id": 783619282, "lat": -37.0229655, "lon": 145.1365063}, {"type": "node", "id": 1734717976, "lat": -37.0234963, "lon": 145.1337096, "tags": {"addr:housenumber": "20", "addr:street": "Tallarook Street", "brand": "Coles", "brand:wikidata": "Q1108172", "brand:wikipedia": "en:Coles Supermarkets", "name": "Coles", "shop": "supermarket", "website": "https://www.coles.com.au/"}}, {"type": "node", "id": 1973804854, "lat": -36.8926496, "lon": 145.2309102, "tags": {"shop": "convenience"}}, {"type": "node", "id": 2902922918, "lat": -36.7529482, "lon": 145.5728457, "tags": {"addr:city": "Euroa", "addr:housenumber": "1a", "addr:postcode": "3666", "addr:street": "Bury Street", "amenity": "cinema", "name": "Euroa Community Cinema", "website": "https://www.strathbogie.vic.gov.au/tourism/euroa-community-cinema/"}}, {"type": "node", "id": 2902997371, "lat": -36.756233, "lon": 145.5710505, "tags": {"addr:city": "Euroa", "addr:housenumber": "1", "addr:postcode": "3666", "addr:state": "VIC", "addr:street": "Clifton Street", "addr:suburb": "Euroa", "name": "Euroa Corner Shop", "phone": "+61 3 5795 3239", "shop": "convenience"}}, {"type": "node", "id": 2902997374, "lat": -36.7506508, "lon": 145.5707787, "tags": {"addr:city": "Euroa", "addr:housenumber": "67", "addr:postcode": "3666", "addr:state": "VIC", "addr:street": "Binney Street", "addr:suburb": "Euroa", "name": "Burkes Bakery", "opening_hours": "Mo-Fr 06:30-17:00; Sa-Su  06:30-14:00", "phone": "+61 3 5795 2738", "shop": "bakery"}}, {"type": "node", "id": 2902997375, "lat": -36.7493835, "lon": 145.5698124, "tags": {"addr:city": "Euroa", "addr:housenumber": "19", "addr:postcode": "3666", "addr:state": "VIC", "addr:street": "Binney Street", "addr:suburb": "Euroa", "name": "Mawson's Bakery Cafe", "opening_hours": "Mo-Fr 07:00-16:00; Sa 07:00-14:30; Su 08:00-13:30", "phone": "+61 3 5795 2425", "shop": "bakery"}}, {"type": "node", "id": 3362565671, "lat": -37.0227252, "lon": 145.1333306}, {"type": "node", "id": 3362565673, "lat": -37.0225771, "lon": 145.1332099}, {"type": "node", "id": 3362565674, "lat": -37.0226771, "lon": 145.1334231}, {"type": "node", "id": 3362565675, "lat": -37.0227816, "lon": 145.1335083}, {"type": "node", "id": 3362565676, "lat": -37.0228175, "lon": 145.1327472}, {"type": "node", "id": 3362565679, "lat": -37.0230701, "lon": 145.1329532}, {"type": "node", "id": 3374192946, "lat": -37.0238792, "lon": 145.1381502, "tags": {"amenity": "nightclub", "name": "Station 26"}}, {"type": "node", "id": 3423261225, "lat": -36.7428924, "lon": 145.5915057, "tags": {"brand": "Coles Express", "brand:wikidata": "Q5144653", "brand:wikipedia": "en:Coles Express", "check_date": "2024-02-18", "name": "Coles Express", "opening_hours": "24/7", "shop": "convenience", "website": "https://www.colesexpress.com.au/"}}, {"type": "node", "id": 4041116944, "lat": -36.7882845, "lon": 145.1520348, "tags": {"name": "Supa IGA", "shop": "supermarket", "wheelchair": "yes"}}, {"type": "node", "id": 4463210610, "lat": -36.7499297, "lon": 145.5774289}, {"type": "node", "id": 4463210611, "lat": -36.7497628, "lon": 145.5773686}, {"type": "node", "id": 4463210612, "lat": -36.7498385, "lon": 145.5775066}, {"type": "node", "id": 4463210615, "lat": -36.7500748, "lon": 145.5773047}, {"type": "node", "id": 4463210629, "lat": -36.7499992, "lon": 145.5771668}, {"type": "node", "id": 4463210633, "lat": -36.7500015, "lon": 145.5773714}, {"type": "node", "id": 6324424602, "lat": -37.0248273, "lon": 145.1355334, "tags": {"addr:housenumber": "88", "addr:postcode": "3660", "addr:state": "VIC", "addr:street": "Station Street", "addr:suburb": "Seymour", "name": "Gaffney's Pie Kitchen", "opening_hours": "Mo-Fr 09:00-16:00; Sa-Su 09:00-15:00", "phone": "+61 3 5792 4246", "shop": "bakery", "website": "https://www.gaffneysbakery.com.au/"}}, {"type": "node", "id": 6324424623, "lat": -37.0235911, "lon": 145.1341027, "tags": {"brand": "Bakers Delight", "brand:wikidata": "Q4849261", "brand:wikipedia": "en:Bakers Delight", "name": "Bakers Delight", "shop": "bakery"}}, {"type": "node", "id": 6324424626, "lat": -37.0240659, "lon": 145.135657, "tags": {"addr:housenumber": "78", "addr:postcode": "3660", "addr:state": "VIC", "addr:street": "Station Street", "addr:suburb": "Seymour", "brand": "Ferguson Plarre's Bakehouse", "brand:wikidata": "Q5444249", "email": "seymour@fergusonplarre.com.au", "name": "Ferguson Plarre's Bakehouse", "opening_hours": "Mo-Fr 08:00-16:00; Sa 08:00-15:00; Su 09:00-15:00", "phone": "+61 3 5799 0392", "shop": "bakery", "website": "https://www.fergusonplarre.com.au/seymour"}}, {"type": "node", "id": 11699344322, "lat": -37.0204199, "lon": 145.1275695, "tags": {"shop": "convenience"}}, {"type": "way", "id": 52867945, "nodes": [670124466, 670124467, 670124468, 670124469, 670124470, 670124471, 670124466], "tags": {"building": "yes", "building:levels": "1", "name": "Nagambie Bakery & Coffee Lounge", "shop": "bakery"}}, {"type": "way", "id": 63048521, "nodes": [783619277, 783619278, 783619279, 783619280, 783619281, 783619282, 783619277], "tags": {"alt_name": "Safeway", "brand": "Woolworths", "brand:wikidata": "Q3249145", "brand:wikipedia": "en:Woolworths Supermarkets", "building": "yes", "name": "Woolworths", "shop": "supermarket", "website": "https://www.woolworths.com.au/"}}, {"type": "way", "id": 329380696, "nodes": [3362565673, 3362565676, 3362565679, 3362565675, 3362565674, 3362565671, 3362565673], "tags": {"addr:housenumber": "32-34", "addr:street": "Tallarook Street", "brand": "ALDI", "brand:wikidata": "Q125054", "brand:wikipedia": "en:Aldi", "building": "yes", "check_date:opening_hours": "2023-05-05", "full_name": "ALDI Seymour", "name": "ALDI", "opening_hours": "Mo-Fr 08:30-20:00; Sa-Su 08:30-19:00", "shop": "supermarket", "website": "https://store.aldi.com.au/vic/seymour/tallarook-street-32-34", "wheelchair": "yes"}}, {"type": "way", "id": 449351929, "nodes": [4463210629, 4463210611, 4463210612, 4463210610, 4463210633, 4463210615, 4463210629], "tags": {"brand": "BP Shop", "brand:wikidata": "Q152057", "brand:wikipedia": "en:BP", "building": "yes", "name": "BP Shop", "shop": "convenience"}}]}