{"version": 0.6, "generator": "Overpass API 0.7.62.1 084b4234", "osm3s": {"timestamp_osm_base": "2024-09-11T11:03:45Z", "copyright": "The data included in this document is from www.openstreetmap.org. The data is made available under ODbL."}, "elements": [{"type": "node", "id": 1541597790, "lat": -36.3273458, "lon": 145.685083, "tags": {"name": "General Store", "shop": "convenience"}}, {"type": "node", "id": 4409566999, "lat": -36.5495184, "lon": 145.9889959, "tags": {"addr:housenumber": "49-59", "addr:postcode": "3672", "addr:state": "VIC", "addr:street": "Smythe Street", "addr:suburb": "Benalla", "branch": "Benalla", "brand": "Woolworths", "brand:wikidata": "Q3249145", "brand:wikipedia": "en:Woolworths Supermarkets", "name": "Woolworths", "opening_hours": "Mo-Su 07:00-22:00", "operator": "Woolworths Group", "operator:wikidata": "Q607272", "phone": "+61 3 5760 4025", "shop": "supermarket", "website": "https://www.woolworths.com.au"}}, {"type": "node", "id": 4409569509, "lat": -36.549889, "lon": 145.9901922, "tags": {"addr:housenumber": "141-153", "addr:street": "Bridge Street East", "brand": "ALDI", "brand:wikidata": "Q125054", "brand:wikipedia": "en:Aldi", "check_date:opening_hours": "2023-05-05", "full_name": "ALDI Benalla", "name": "ALDI", "opening_hours": "Mo-Fr 08:30-20:00; Sa-Su 08:30-19:00", "shop": "supermarket", "website": "https://store.aldi.com.au/vic/benalla/141-153-bridge-street", "wheelchair": "yes"}}, {"type": "node", "id": 4575192198, "lat": -36.5565389, "lon": 145.9710915}, {"type": "node", "id": 4575192199, "lat": -36.5564475, "lon": 145.9711079}, {"type": "node", "id": 4575192200, "lat": -36.5564244, "lon": 145.9709076}, {"type": "node", "id": 4575192203, "lat": -36.5564101, "lon": 145.9708039}, {"type": "node", "id": 4575192204, "lat": -36.5564008, "lon": 145.970728}, {"type": "node", "id": 4575192205, "lat": -36.5564736, "lon": 145.970715}, {"type": "node", "id": 4575192206, "lat": -36.5564896, "lon": 145.9708546}, {"type": "node", "id": 4575192207, "lat": -36.556512, "lon": 145.9708592}, {"type": "node", "id": 5572366640, "lat": -36.5493843, "lon": 145.9862034}, {"type": "node", "id": 5572366641, "lat": -36.5495172, "lon": 145.9860548}, {"type": "node", "id": 5572366644, "lat": -36.5493819, "lon": 145.9859286}, {"type": "node", "id": 5572366645, "lat": -36.5495124, "lon": 145.9858647}, {"type": "node", "id": 5572366650, "lat": -36.5496584, "lon": 145.9858092}, {"type": "node", "id": 5572366653, "lat": -36.5494055, "lon": 145.9858264}, {"type": "node", "id": 5572366656, "lat": -36.5494753, "lon": 145.986236}, {"type": "node", "id": 5572366658, "lat": -36.5495354, "lon": 145.9857652}, {"type": "node", "id": 5572366661, "lat": -36.5494428, "lon": 145.9859504}, {"type": "node", "id": 5572366667, "lat": -36.5500833, "lon": 145.9855859}, {"type": "node", "id": 5572366668, "lat": -36.54994, "lon": 145.9862062}, {"type": "node", "id": 5572366673, "lat": -36.5497384, "lon": 145.9854625}, {"type": "node", "id": 6007231275, "lat": -36.5500794, "lon": 145.9885598, "tags": {"addr:housenumber": "55", "addr:postcode": "3672", "addr:state": "VIC", "addr:street": "Smythe Street", "addr:suburb": "Benalla", "name": "Micrenz Bakery", "payment:cash": "yes", "shop": "bakery"}}, {"type": "node", "id": 6127489877, "lat": -36.3394548, "lon": 146.0783588, "tags": {"shop": "convenience"}}, {"type": "way", "id": 462119358, "nodes": [4575192198, 4575192199, 4575192200, 4575192203, 4575192204, 4575192205, 4575192206, 4575192207, 4575192198], "tags": {"brand": "Coles Express", "brand:wikidata": "Q5144653", "brand:wikipedia": "en:Coles Express", "building": "yes", "name": "Coles Express", "shop": "convenience"}}, {"type": "way", "id": 582717934, "nodes": [5572366673, 5572366650, 5572366658, 5572366645, 5572366653, 5572366644, 5572366661, 5572366640, 5572366656, 5572366641, 5572366668, 5572366667, 5572366673], "tags": {"addr:city": "Benalla", "addr:housenumber": "45", "addr:postcode": "3672", "addr:state": "VIC", "addr:street": "Carrier Street", "brand": "Coles", "brand:wikidata": "Q1108172", "brand:wikipedia": "en:Coles Supermarkets", "building": "retail", "name": "Coles", "shop": "supermarket", "website": "https://www.coles.com.au/"}}]}